codigo_ocorrencia2,aeronave_matricula,aeronave_operador_categoria,aeronave_tipo_veiculo,aeronave_fabricante,aeronave_modelo,aeronave_tipo_icao,aeronave_motor_tipo,aeronave_motor_quantidade,aeronave_pmd,aeronave_pmd_categoria,aeronave_assentos,aeronave_ano_fabricacao,aeronave_pais_fabricante,aeronave_pais_registro,aeronave_registro_categoria,aeronave_registro_segmento,aeronave_voo_origem,aeronave_voo_destino,aeronave_fase_operacao,aeronave_tipo_operacao,aeronave_nivel_dano,aeronave_fatalidades_total,codigo_ocorrencia,codigo_ocorrencia1,codigo_ocorrencia3,codigo_ocorrencia4,ocorrencia_classificacao,ocorrencia_latitude,ocorrencia_longitude,ocorrencia_cidade,ocorrencia_uf,ocorrencia_pais,ocorrencia_aerodromo,ocorrencia_dia,ocorrencia_hora,investigacao_aeronave_liberada,investigacao_status,divulgacao_relatorio_numero,divulgacao_relatorio_publicado,divulgacao_dia_publicacao,total_recomendacoes,total_aeronaves_envolvidas,ocorrencia_saida_pista
87125,PSAEX,***,AVIAO,EMBRAER,ERJ 190-400,E295,,***,61200.0,61200.0,0.0,2024.0,BRASIL,BRASIL,AVIAO,***,VIRACOPOS,ORLANDO BEZERRA DE MENEZES,DESCIDA,REGULAR,NENHUM,0.0,87125,87125,87125,87125,INCIDENTE,-7.219166666666,-39.26944444444,JUAZEIRO DO NORTE,CE,BRASIL,FAER,11/05/2025,04:20:00,SIM,FINALIZADA,***,NAO,,0,1,NAO
87124,PRYXD,***,AVIAO,ATR - GIE AVIONS DE TRANSPORT REGIONAL,ATR-72-212A (600),AT76,***,***,23000.0,23000.0,,2024.0,BRASIL,BRASIL,AVIAO,***,TENENTE-CORONEL AVIADOR CESAR BOMBONATO,TANCREDO NEVES,SUBIDA,REGULAR,NENHUM,0.0,87124,87124,87124,87124,INCIDENTE,-18.88361111111,-48.22527777777,UBERLANDIA,MG,BRASIL,SBUL,08/05/2025,14:00:00,SIM,FINALIZADA,***,NAO,,0,1,NAO
87123,PRXBT,***,***,AIRBUS S.A.S.,A320-271N,A20N,,BIMOTOR,79000.0,79000.0,,,BRASIL,BRASIL,***,***,GOVERNADOR ANDRE FRANCO MONTORO,PINTO MARTINS,DECOLAGEM,REGULAR,NENHUM,0.0,87123,87123,87123,87123,INCIDENTE,-23.43555555555,-46.47305555555,GUARULHOS,SP,BRASIL,SBGR,09/05/2025,18:45:00,SIM,FINALIZADA,***,NAO,,0,1,NAO
87122,PRAKJ,***,AVIAO,ATR - GIE AVIONS DE TRANSPORT REGIONAL,ATR-72-212A (600),AT76,TURBOELICE,BIMOTOR,22000.0,22000.0,0.0,2016.0,BRASIL,BRASIL,AVIAO,***,SANTA MARIA,VIRACOPOS,DECOLAGEM,REGULAR,NENHUM,0.0,87122,87122,87122,87122,INCIDENTE,-29.71083333333,-53.69222222222,SANTA MARIA,RS,BRASIL,SBSM,04/05/2025,14:45:00,SIM,FINALIZADA,***,NAO,,0,1,NAO
87121,PRMHK,***,AVIAO,AIRBUS,A320-214,A320,JATO,BIMOTOR,77000.0,77000.0,184.0,2007.0,BRASIL,BRASIL,AVIAO,***,PROFESSOR ERIBERTO MANOEL REINO,GOVERNADOR ANDRE FRANCO MONTORO,DECOLAGEM,REGULAR,LEVE,0.0,87121,87121,87121,87121,INCIDENTE,-20.81722222222,-49.40694444444,SAO JOSE DO RIO PRETO,SP,BRASIL,SBSR,10/05/2025,10:00:00,SIM,FINALIZADA,***,NAO,,0,1,NAO
87118,PRTQC,***,AVIAO,AIRBUS S.A.S.,A320-214,A320,,BIMOTOR,78000.0,78000.0,0.0,2011.0,BRASIL,BRASIL,AVIAO,***,PRESIDENTE JUSCELINO KUBITSCHEK,PRESIDENTE CASTRO PINTO,DECOLAGEM,REGULAR,LEVE,0.0,87118,87118,87118,87118,INCIDENTE,-15.87111111111,-47.91861111111,BRASILIA,DF,BRASIL,SBBR,07/05/2025,11:15:00,SIM,FINALIZADA,***,NAO,,0,1,NAO
87117,PRGTE,***,AVIAO,BOEING,737-8EH,B738,JATO,BIMOTOR,79000.0,79000.0,194.0,2006.0,BRASIL,BRASIL,AVIAO,***,PINTO MARTINS,GOVERNADOR ANDRE FRANCO MONTORO,SUBIDA,REGULAR,NENHUM,0.0,87117,87117,87117,87117,INCIDENTE,-3.775833333333,-38.53222222222,FORTALEZA,CE,BRASIL,FAER,19/04/2025,15:45:00,SIM,FINALIZADA,***,NAO,,0,1,NAO
87116,PRMYJ,***,AVIAO,AIRBUS,A320-214,A320,JATO,BIMOTOR,77000.0,77000.0,184.0,2010.0,BRASIL,BRASIL,AVIAO,***,GOVERNADOR ANDRE FRANCO MONTORO,PROFESSOR ERIBERTO MANOEL REINO,CRUZEIRO,REGULAR,NENHUM,0.0,87116,87116,87116,87116,INCIDENTE,,,GUARULHOS,SP,BRASIL,FAER,05/05/2025,16:45:00,SIM,FINALIZADA,***,NAO,,0,1,NAO
87115,PRVBG,***,AVIAO,BOEING,737-8EH,B738,JATO,BIMOTOR,79000.0,79000.0,197.0,2008.0,BRASIL,BRASIL,AVIAO,***,ZUMBI DOS PALMARES,DEPUTADO LUIS EDUARDO MAGALHAES,DECOLAGEM,REGULAR,LEVE,0.0,87115,87115,87115,87115,INCIDENTE,-9.510833333333,-35.79166666666,MACEIO,AL,BRASIL,SBMO,25/04/2025,15:30:00,SIM,FINALIZADA,***,NAO,,0,1,NAO
87114,N989AR,***,***,GULFSTREAM,GVII-G600,,,BIMOTOR,0.0,0.0,,,BRASIL,BRASIL,***,***,SANTA GENOVEVA/GOIANIA,AERODROMO NAO CADASTRADO,DECOLAGEM,PRIVADA,NENHUM,0.0,87114,87114,87114,87114,INCIDENTE,-16.6325,-49.22111111111,GOIANIA,GO,BRASIL,SBGO,04/05/2025,18:30:00,SIM,FINALIZADA,***,NAO,,0,1,NAO
87113,PTKFW,***,AVIAO,CESSNA AIRCRAFT,170B,C170,PISTAO,MONOMOTOR,998.0,998.0,1.0,1953.0,BRASIL,BRASIL,AVIAO,***,JACAREPAGUA,JACAREPAGUA,POUSO,ESPECIALIZADA,NENHUM,0.0,87113,87113,87113,87113,INCIDENTE,-22.9875,-43.37,RIO DE JANEIRO,RJ,BRASIL,SBJR,18/04/2025,16:00:00,SIM,FINALIZADA,***,NAO,,0,1,NAO
87112,PSCNC,***,AVIAO,CESSNA AIRCRAFT,208B,C208,TURBOELICE,MONOMOTOR,4110.0,4110.0,11.0,0.0,BRASIL,BRASIL,AVIAO,***,TANCREDO NEVES,JACAREPAGUA,CRUZEIRO,TAXI AEREO,NENHUM,0.0,87112,87112,87112,87112,INCIDENTE,-22.9875,-43.37,RIO DE JANEIRO,RJ,BRASIL,FAER,05/05/2025,23:45:00,SIM,FINALIZADA,***,NAO,,0,1,NAO
87111,PRVJM,***,AVIAO,CESSNA AIRCRAFT,210N,C210,PISTAO,MONOMOTOR,1724.0,1724.0,6.0,1981.0,BRASIL,BRASIL,AVIAO,***,CARAJAS,AERODROMO NAO CADASTRADO,POUSO,TAXI AEREO,SUBSTANCIAL,0.0,87111,87111,87111,87111,ACIDENTE,-6.304444444444,-50.91333333333,PARAUAPEBAS,PA,BRASIL,NCAD,05/05/2025,20:30:00,NAO,ATIVA,A DEFINIR,NAO,,0,1,NAO
87110,PTWOS,***,AVIAO,CESSNA AIRCRAFT,208,C208,TURBOELICE,MONOMOTOR,3629.0,3629.0,11.0,1990.0,BRASIL,BRASIL,AVIAO,***,VAL DE CANS / JULIO CEZAR RIBEIRO,MARECHAL CUNHA MACHADO,TAXI,TAXI AEREO,LEVE,0.0,87110,87110,87110,87110,INCIDENTE,-2.586944444444,-44.23611111111,SAO LUIS,MA,BRASIL,SBSL,05/05/2025,19:55:00,SIM,FINALIZADA,***,NAO,,0,1,NAO
87109,PSGNI,***,AVIAO,HAWKER BEECHCRAFT,C90GTI,BE9L,,BIMOTOR,4581.0,4581.0,0.0,0.0,BRASIL,BRASIL,AVIAO,***,Comandante Rolim Adolfo Amaro,VILHENA,DESCIDA,PRIVADA,LEVE,0.0,87109,87109,87109,87109,INCIDENTE,-13.78222222222,-58.91555555555,SAPEZAL,MT,BRASIL,FAER,05/04/2025,15:30:00,SIM,FINALIZADA,***,NAO,,0,1,NAO
87108,PRTYT,***,AVIAO,AIRBUS,A320-214,A320,JATO,BIMOTOR,78000.0,78000.0,0.0,2015.0,BRASIL,BRASIL,AVIAO,***,VAL DE CANS / JULIO CEZAR RIBEIRO,GOVERNADOR ANDRE FRANCO MONTORO,POUSO,REGULAR,NENHUM,0.0,87108,87108,87108,87108,INCIDENTE,-23.43555555555,-46.47305555555,GUARULHOS,SP,BRASIL,SBGR,25/03/2025,11:45:00,SIM,FINALIZADA,***,NAO,,0,1,NAO
87107,PTMUI,***,AVIAO,BOEING,777-32WER,B77W,JATO,BIMOTOR,346544.0,346544.0,384.0,2013.0,BRASIL,BRASIL,AVIAO,***,AEROPORTO DE FRANKFURT ALEMANHA,GOVERNADOR ANDRE FRANCO MONTORO,POUSO,REGULAR,NENHUM,0.0,87107,87107,87107,87107,INCIDENTE,-23.43555555555,-46.47305555555,GUARULHOS,SP,BRASIL,SBGR,29/03/2025,12:00:00,SIM,FINALIZADA,***,NAO,,0,1,NAO
87106,PTXPN,***,AVIAO,AIRBUS,A321-211,A320,***,***,89000.0,89000.0,,2016.0,BRASIL,BRASIL,AVIAO,***,GOVERNADOR ANDRE FRANCO MONTORO,ANTONIO CARLOS JOBIM / GALEAO,APROXIMACAO FINAL,REGULAR,LEVE,0.0,87106,87106,87106,87106,INCIDENTE,-22.81,-43.25055555555,RIO DE JANEIRO,RJ,BRASIL,SBGL,05/05/2025,14:00:00,SIM,FINALIZADA,***,NAO,,0,1,NAO
87105,PSGRA,***,AVIAO,BOEING COMPANY,B737-8 MAX,B38M,,***,82190.0,82190.0,,2023.0,BRASIL,BRASIL,AVIAO,***,EDUARDO GOMES,MAESTRO WILSON FONSECA,DECOLAGEM,REGULAR,LEVE,0.0,87105,87105,87105,87105,INCIDENTE,-3.041111111111,-60.05055555555,MANAUS,AM,BRASIL,SBEG,02/05/2025,16:37:00,SIM,FINALIZADA,***,NAO,,0,1,NAO
87104,PSLBM,***,AVIAO,AIRBUS S.A.S.,A321-271N,A21N,,***,89000.0,89000.0,,2024.0,BRASIL,BRASIL,AVIAO,***,AFONSO PENA,GOVERNADOR ANDRE FRANCO MONTORO,POUSO,REGULAR,LEVE,0.0,87104,87104,87104,87104,INCIDENTE,-23.43555555555,-46.47305555555,GUARULHOS,SP,BRASIL,SBGR,27/04/2025,19:41:00,SIM,FINALIZADA,***,NAO,,0,1,NAO
87103,PUTDP,***,ULTRALEVE,***,ADVENTURE,ULAC,PISTAO,MONOMOTOR,420.0,420.0,2.0,2008.0,BRASIL,BRASIL,ULTRALEVE,***,FORA DE AERODROMO,FORA DE AERODROMO,APROXIMACAO FINAL,EXPERIMENTAL,SUBSTANCIAL,1.0,87103,87103,87103,87103,ACIDENTE,-7.256111111111,-38.37666666666,SERRA GRANDE,PB,BRASIL,FAER,03/05/2025,11:50:00,SIM,ATIVA,A DEFINIR,NAO,,0,1,NAO
87102,PRGUI,***,AVIAO,BOEING,737-8EH,B738,JATO,BIMOTOR,79015.0,79015.0,187.0,2011.0,BRASIL,BRASIL,AVIAO,***,TENENTE-CORONEL AVIADOR CESAR BOMBONATO,CONGONHAS,SUBIDA,REGULAR,NENHUM,0.0,87102,87102,87102,87102,INCIDENTE GRAVE,,,UBERABA,MG,BRASIL,FAER,11/04/2025,18:45:00,SIM,ATIVA,IG-057/CENIPA/2025,NAO,,0,2,NAO
87102,PSTEO,***,***,BEECH AIRCRAFT,400A,BE40,,BIMOTOR,7393.0,7393.0,,,BRASIL,BRASIL,***,***,CAMPO DE MARTE - SP,TENENTE-CORONEL AVIADOR CESAR BOMBONATO,DESCIDA,PRIVADA,NENHUM,0.0,87102,87102,87102,87102,INCIDENTE GRAVE,,,UBERABA,MG,BRASIL,FAER,11/04/2025,18:45:00,SIM,ATIVA,IG-057/CENIPA/2025,NAO,,0,2,NAO
87100,PRKLI,***,HELICOPTERO,HELIBRAS,AS 350 B2,AS50,TURBOEIXO,MONOMOTOR,2250.0,2250.0,6.0,2008.0,BRASIL,BRASIL,HELICOPTERO,***,FORA DE AERODROMO,SURUCUCU,CRUZEIRO,***,LEVE,0.0,87100,87100,87100,87100,INCIDENTE,2.7833333333333,-63.31666666666,ALTO ALEGRE,RR,BRASIL,FAER,01/05/2025,19:30:00,SIM,FINALIZADA,***,NAO,,0,1,NAO
87099,PRGYD,***,***,BOEING,737-8EH,B738,JATO,BIMOTOR,70533.0,70533.0,0.0,0.0,BRASIL,BRASIL,***,***,PRESIDENTE JUSCELINO KUBITSCHEK,MARECHAL CUNHA MACHADO,DECOLAGEM,REGULAR,LEVE,0.0,87099,87099,87099,87099,INCIDENTE,-15.87111111111,-47.91861111111,BRASILIA,DF,BRASIL,SBBR,23/04/2025,11:51:00,SIM,FINALIZADA,***,NAO,,0,1,NAO
87098,MXLII - FL,***,***,,,,,SEM TRACAO,0.0,0.0,,,BRASIL,BRASIL,***,***,JABOTICABAL,BARTOLOMEU DE GUSMAO,CRUZEIRO,AERODESPORTIVA,SUBSTANCIAL,1.0,87098,87098,87098,87098,ACIDENTE,-21.81194444444,-48.13305555555,ARARAQUARA,SP,BRASIL,FAER,26/04/2025,19:15:00,SIM,FINALIZADA,***,NAO,,0,1,NAO
87097,PRWBF,***,AVIAO,PIPER AIRCRAFT,PA-34-220T,PA34,PISTAO,BIMOTOR,2155.0,2155.0,7.0,1990.0,BRASIL,BRASIL,AVIAO,***,LEITE LOPES,PONTAL,TAXI,PRIVADA,LEVE,0.0,87097,87097,87097,87097,INCIDENTE,-21.13638888888,-47.77666666666,RIBEIRAO PRETO,SP,BRASIL,SBRP,29/04/2025,20:33:00,SIM,FINALIZADA,***,NAO,,0,1,NAO
87096,PTMXH,***,AVIAO,AIRBUS,A321-231,A321,JATO,BIMOTOR,89000.0,89000.0,232.0,2011.0,BRASIL,BRASIL,AVIAO,***,ANTONIO CARLOS JOBIM / GALEAO,CATARATAS,DECOLAGEM,REGULAR,LEVE,0.0,87096,87096,87096,87096,INCIDENTE,-22.81,-43.25055555555,RIO DE JANEIRO,RJ,BRASIL,SBGL,02/05/2025,14:30:00,SIM,FINALIZADA,***,NAO,,0,1,NAO
87095,PTMXC,***,AVIAO,AIRBUS,A321-231,A321,JATO,BIMOTOR,89000.0,89000.0,232.0,2007.0,BRASIL,BRASIL,AVIAO,***,GOVERNADOR ANDRE FRANCO MONTORO,ANTONIO CARLOS JOBIM / GALEAO,POUSO,REGULAR,LEVE,0.0,87095,87095,87095,87095,INCIDENTE,-22.81,-43.25055555555,RIO DE JANEIRO,RJ,BRASIL,SBGL,02/05/2025,13:00:00,SIM,FINALIZADA,***,NAO,,0,1,NAO
87093,PRATV,***,AVIAO,ATR - GIE AVIONS DE TRANSPORT REGIONAL,ATR-72-212A,AT72,TURBOELICE,BIMOTOR,23000.0,23000.0,75.0,2012.0,BRASIL,BRASIL,AVIAO,***,TENENTE-CORONEL AVIADOR CESAR BOMBONATO,VIRACOPOS,SUBIDA,REGULAR,NENHUM,0.0,87093,87093,87093,87093,INCIDENTE,-18.88361111111,-48.22527777777,UBERLANDIA,MG,BRASIL,FAER,24/04/2025,19:30:00,SIM,FINALIZADA,***,NAO,,0,1,NAO
87092,PSGPB,***,AVIAO,BOEING,737-8 MAX,B38M,,***,82190.0,82190.0,0.0,2018.0,BRASIL,BRASIL,AVIAO,***,PRESIDENTE JUSCELINO KUBITSCHEK,AEROPUERTO INTERNACIONAL MINISTRO PISTARINI,CRUZEIRO,REGULAR,NENHUM,0.0,87092,87092,87092,87092,INCIDENTE,-23.43555555555,-46.47305555555,GUARULHOS,SP,BRASIL,FAER,27/04/2025,16:15:00,SIM,FINALIZADA,***,NAO,,0,1,NAO
87091,PRGXD,***,AVIAO,BOEING,737-8EH,B738,JATO,BIMOTOR,70533.0,70533.0,199.0,2013.0,BRASIL,BRASIL,AVIAO,***,DEPUTADO LUIS EDUARDO MAGALHAES,GOVERNADOR ANDRE FRANCO MONTORO,DECOLAGEM,REGULAR,LEVE,0.0,87091,87091,87091,87091,INCIDENTE,-12.90861111111,-38.3225,SALVADOR,BA,BRASIL,SBSV,23/04/2025,16:05:00,SIM,FINALIZADA,***,NAO,,0,1,NAO
87090,PRGUN,***,AVIAO,BOEING,737-8EH,B738,JATO,BIMOTOR,70533.0,70533.0,193.0,2012.0,BRASIL,BRASIL,AVIAO,***,CONGONHAS,SANTOS DUMONT,APROXIMACAO FINAL,REGULAR,LEVE,0.0,87090,87090,87090,87090,INCIDENTE,-22.91,-43.1625,RIO DE JANEIRO,RJ,BRASIL,SBRJ,03/05/2025,19:00:00,SIM,FINALIZADA,***,NAO,,0,1,NAO
87089,PRMYJ,***,AVIAO,AIRBUS,A320-214,A320,JATO,BIMOTOR,77000.0,77000.0,184.0,2010.0,BRASIL,BRASIL,AVIAO,***,PREFEITO RENATO MOREIRA,PRESIDENTE JUSCELINO KUBITSCHEK,CRUZEIRO,REGULAR,LEVE,0.0,87089,87089,87089,87089,INCIDENTE,-5.530555555555,-47.45833333333,IMPERATRIZ,MA,BRASIL,FAER,19/07/2024,22:45:00,SIM,FINALIZADA,***,NAO,,0,1,NAO
87088,PREAE,***,HELICOPTERO,SIKORSKY AIRCRAFT,S-76C,S76,TURBOEIXO,BIMOTOR,5307.0,5307.0,,,BRASIL,BRASIL,HELICOPTERO,***,AERODROMO NAO CADASTRADO,MACAE/RIO DE JANEIRO - JOAQUIM DE AZEVEDO MANCEBO,APROXIMACAO FINAL,TAXI AEREO,NENHUM,0.0,87088,87088,87088,87088,INCIDENTE,-22.34277777777,-41.76388888888,MACAE,RJ,BRASIL,SBME,30/04/2025,13:35:00,SIM,FINALIZADA,***,NAO,,0,1,NAO
87087,PRAKJ,***,AVIAO,ATR - GIE AVIONS DE TRANSPORT REGIONAL,ATR-72-212A (600),AT76,TURBOELICE,BIMOTOR,22000.0,22000.0,0.0,2016.0,BRASIL,BRASIL,AVIAO,***,AFONSO PENA,ADALBERTO MENDES DA SILVA,SUBIDA,REGULAR,NENHUM,0.0,87087,87087,87087,87087,INCIDENTE,-25.53166666666,-49.17611111111,CURITIBA,PR,BRASIL,FAER,27/04/2025,20:45:00,SIM,FINALIZADA,***,NAO,,0,1,NAO
87086,PRGOQ,***,AVIAO,BOEING,737-76N,B737,JATO,BIMOTOR,61461.0,61461.0,153.0,2002.0,BRASIL,BRASIL,AVIAO,***,DEPUTADO LUIS EDUARDO MAGALHAES,SANTOS DUMONT,POUSO,REGULAR,LEVE,0.0,87086,87086,87086,87086,INCIDENTE,-22.91,-43.1625,RIO DE JANEIRO,RJ,BRASIL,SBRJ,21/07/2024,09:15:00,SIM,FINALIZADA,***,NAO,,0,1,NAO
87085,PRYRR,***,AVIAO,AIRBUS,A320-253N,A320,***,***,0.0,0.0,,2018.0,BRASIL,BRASIL,AVIAO,***,GUARARAPES - GILBERTO FREYRE,MARECHAL CUNHA MACHADO,CRUZEIRO,REGULAR,NENHUM,0.0,87085,87085,87085,87085,INCIDENTE,,,RECIFE,PE,BRASIL,FAER,25/04/2025,02:30:00,SIM,FINALIZADA,***,NAO,,0,1,NAO
87084,PUHGM,***,GIROCOPTERO,FLAVIUS NEVES,H2,ZZZZ,PISTAO,MONOMOTOR,500.0,500.0,2.0,2019.0,BRASIL,BRASIL,GIROCOPTERO,***,TARCISIO ROSADO,TARCISIO ROSADO,MANOBRA,EXPERIMENTAL,DESTRUIDA,2.0,87084,87084,87084,87084,ACIDENTE,-4.891944444444,-37.21361111111,GROSSOS,RN,BRASIL,FAER,21/04/2025,19:30:00,SIM,ATIVA,A-065/CENIPA/2025,NAO,,0,1,NAO
87082,PTWTC,***,AVIAO,PIPER AIRCRAFT,PA-25-235,PA25,PISTAO,MONOMOTOR,1315.0,1315.0,1.0,1968.0,BRASIL,BRASIL,AVIAO,***,AERODROMO NAO CADASTRADO,AERODROMO NAO CADASTRADO,DECOLAGEM,AGRICOLA,SUBSTANCIAL,0.0,87082,87082,87082,87082,ACIDENTE,-14.38888888888,-47.52222222222,ALTO PARAISO DE GOIAS,GO,BRASIL,NCAD,29/04/2025,11:30:00,SIM,ATIVA,A-068/CENIPA/2025,NAO,,0,1,NAO
87081,PRNYA,***,AVIAO,CESSNA AIRCRAFT,210L,C210,PISTAO,MONOMOTOR,1724.0,1724.0,6.0,1974.0,BRASIL,BRASIL,AVIAO,***,POUSO DA AGUIA,AUARIS,DECOLAGEM,***,NENHUM,0.0,87081,87081,87081,87081,INCIDENTE,2.7872222222222,-60.59583333333,CANTA,RR,BRASIL,SWPD,26/04/2025,16:15:00,SIM,FINALIZADA,***,NAO,,0,1,NAO
87080,PSSLH,***,***,TEXTRON AVIATION,208B,C208,,MONOMOTOR,3969.0,3969.0,,,BRASIL,BRASIL,***,***,AUARIS,POUSO DA AGUIA,TAXI,***,NENHUM,0.0,87080,87080,87080,87080,INCIDENTE,2.7872222222222,-60.59583333333,CANTA,RR,BRASIL,SWPD,27/04/2025,00:00:00,SIM,FINALIZADA,***,NAO,,0,1,NAO
87079,PTRBC,***,AVIAO,EMBRAER,EMB-810C,PA34,PISTAO,BIMOTOR,2073.0,2073.0,6.0,1979.0,BRASIL,BRASIL,AVIAO,***,NAO IDENTIFICADO,NAO IDENTIFICADO,INDETERMINADA,***,DESTRUIDA,0.0,87079,87079,87079,87079,ACIDENTE,,,JACAREACANGA,PA,BRASIL,FAER,13/04/2025,20:00:00,NAO,FINALIZADA,***,NAO,,0,1,NAO
87078,PUTOP,***,ULTRALEVE,FLYER,PELICAN 500BR,ULAC,PISTAO,MONOMOTOR,650.0,650.0,2.0,2007.0,BRASIL,BRASIL,ULTRALEVE,***,BRIGADEIRO LYSIAS RODRIGUES,ASSOCIACAO TOCANTINENSE DE AVIACAO,POUSO,PRIVADA,LEVE,0.0,87078,87078,87078,87078,INCIDENTE,-10.29,-48.35777777777,PALMAS,TO,BRASIL,SBPJ,29/04/2025,19:30:00,SIM,FINALIZADA,***,NAO,,0,1,NAO
87077,PRXMN,***,AVIAO,BOEING,737-8 MAX,B38M,JATO,BIMOTOR,82644.0,82644.0,0.0,2021.0,BRASIL,BRASIL,AVIAO,***,NAO IDENTIFICADO,NAO IDENTIFICADO,INSPECAO DE TRANSITO/INTERVOO,REGULAR,LEVE,0.0,87077,87077,87077,87077,INCIDENTE,-3.775833333333,-38.53222222222,FORTALEZA,CE,BRASIL,SBFZ,17/04/2025,00:15:00,SIM,FINALIZADA,***,NAO,,0,1,NAO
87076,PTMXC,***,AVIAO,AIRBUS,A321-231,A321,JATO,BIMOTOR,89000.0,89000.0,232.0,2007.0,BRASIL,BRASIL,AVIAO,***,GOVERNADOR ANDRE FRANCO MONTORO,HERCILIO LUZ,CRUZEIRO,REGULAR,NENHUM,0.0,87076,87076,87076,87076,INCIDENTE,-23.43555555555,-46.47305555555,SAO PAULO,SP,BRASIL,SBGR,24/04/2025,16:30:00,SIM,FINALIZADA,***,NAO,,0,1,NAO
87075,PRJAW,***,HELICOPTERO,SIKORSKY,S-92A,S92,TURBOEIXO,BIMOTOR,12020.0,12020.0,22.0,2012.0,BRASIL,BRASIL,HELICOPTERO,***,FORA DE AERODROMO,JACAREPAGUA,CRUZEIRO,TAXI AEREO,NENHUM,0.0,87075,87075,87075,87075,INCIDENTE,,,RIO DE JANEIRO,RJ,BRASIL,FAER,25/04/2025,18:00:00,SIM,FINALIZADA,***,NAO,,0,1,NAO
87073,PRWBF,***,AVIAO,PIPER AIRCRAFT,PA-34-220T,PA34,PISTAO,BIMOTOR,2155.0,2155.0,7.0,1990.0,BRASIL,BRASIL,AVIAO,***,PONTAL,LEITE LOPES,POUSO,PRIVADA,LEVE,0.0,87073,87073,87073,87073,INCIDENTE,-21.13638888888,-47.77666666666,RIBEIRAO PRETO,SP,BRASIL,SBRP,25/04/2025,15:30:00,SIM,FINALIZADA,***,NAO,,0,1,NAO
87072,PRCHS,***,HELICOPTERO,SIKORSKY,S-92A,S92,TURBOEIXO,BIMOTOR,12020.0,12020.0,22.0,2009.0,BRASIL,BRASIL,HELICOPTERO,***,FORA DE AERODROMO,JACAREPAGUA,CRUZEIRO,TAXI AEREO,NENHUM,0.0,87072,87072,87072,87072,INCIDENTE,,,RIO DE JANEIRO,RJ,BRASIL,FAER,25/04/2025,13:15:00,SIM,FINALIZADA,***,NAO,,0,1,NAO
87071,PSGBP,***,***,EMBRAER,EMB-110P1,E110,,BIMOTOR,5670.0,5670.0,,,BRASIL,BRASIL,***,***,TRIMONTE,TRIMONTE,APROXIMACAO FINAL,ESPECIALIZADA,LEVE,0.0,87071,87071,87071,87071,INCIDENTE,-22.5125,-42.05111125,CASIMIRO DE ABREU,RJ,BRASIL,SNAO,06/03/2025,15:30:00,SIM,FINALIZADA,***,NAO,,0,1,NAO
87069,PRXMW,***,AVIAO,BOEING COMPANY,737-8 MAX,B38M,JATO,BIMOTOR,82644.0,82644.0,196.0,0.0,BRASIL,BRASIL,AVIAO,***,DEPUTADO LUIS EDUARDO MAGALHAES,SANTA MARIA,POUSO,REGULAR,LEVE,0.0,87069,87069,87069,87069,INCIDENTE,-10.98527777777,-37.07333333333,ARACAJU,SE,BRASIL,SBAR,24/04/2025,18:55:00,SIM,FINALIZADA,***,NAO,,0,1,NAO
87067,PSLBD,***,AVIAO,AIRBUS S.A.S.,A321-271NX,A21N,,***,89000.0,89000.0,0.0,2024.0,BRASIL,BRASIL,AVIAO,***,PINTO MARTINS,EDUARDO GOMES,CRUZEIRO,REGULAR,NENHUM,0.0,87067,87067,87067,87067,INCIDENTE,-3.041111111111,-60.05055555555,MANAUS,AM,BRASIL,FAER,23/04/2025,19:00:00,SIM,FINALIZADA,***,NAO,,0,1,NAO
87066,PRMYR,***,AVIAO,AIRBUS,A320-214,A320,JATO,BIMOTOR,77000.0,77000.0,184.0,2012.0,BRASIL,BRASIL,AVIAO,***,SANTA GENOVEVA/GOIANIA,CONGONHAS,POUSO,REGULAR,LEVE,0.0,87066,87066,87066,87066,INCIDENTE,-23.62611111111,-46.65638888888,SAO PAULO,SP,BRASIL,SBSP,24/04/2025,09:32:00,SIM,FINALIZADA,***,NAO,,0,1,NAO
87065,PRYRD,***,AVIAO,AIRBUS,A320-251N,A320,JATO,TRIMOTOR,79000.0,79000.0,,2016.0,BRASIL,BRASIL,AVIAO,***,VAL DE CANS / JULIO CEZAR RIBEIRO,PINTO MARTINS,POUSO,REGULAR,LEVE,0.0,87065,87065,87065,87065,INCIDENTE,-3.775833333333,-38.53222222222,FORTALEZA,CE,BRASIL,SBFZ,20/04/2025,11:40:00,SIM,FINALIZADA,***,NAO,,0,1,NAO
87064,PSSEN,***,***,PIPER AIRCRAFT,PA-34-220T,PA34,,BIMOTOR,2155.0,2155.0,,,BRASIL,BRASIL,***,***,TERUEL IPANEMA ESTANCIA,FAZENDA AGUA DOCE DO PANTANAL,POUSO,PRIVADA,LEVE,0.0,87064,87064,87064,87064,INCIDENTE GRAVE,-22.02138888888,-57.97166666666,PORTO MURTINHO,MS,BRASIL,FAER,20/04/2025,11:30:00,SIM,FINALIZADA,***,NAO,,0,1,NAO
87063,PSBAS,***,***,EMBRAER,EMB-505,E55P,,BIMOTOR,8340.0,8340.0,,,BRASIL,BRASIL,***,***,SAO PAULO CATARINA AEROPORTO EXECUTIVO,GOVERNADOR ANDRE FRANCO MONTORO,APROXIMACAO FINAL,***,LEVE,0.0,87063,87063,87063,87063,INCIDENTE,-23.43555555555,-46.47305555555,GUARULHOS,SP,BRASIL,SBGR,06/04/2025,22:45:00,SIM,FINALIZADA,***,NAO,,0,1,NAO
87062,PRYSF,***,AVIAO,AIRBUS,A320-251N,A20N,***,***,77000.0,77000.0,,2019.0,BRASIL,BRASIL,AVIAO,***,CONGONHAS,GUARARAPES - GILBERTO FREYRE,DECOLAGEM,REGULAR,NENHUM,0.0,87062,87062,87062,87062,INCIDENTE,-23.62611111111,-46.65638888888,SAO PAULO,SP,BRASIL,SBSP,18/03/2025,21:30:00,SIM,FINALIZADA,***,NAO,,0,1,NAO
87061,PTIVN,***,AVIAO,CESSNA AIRCRAFT,182P,C182,PISTAO,MONOMOTOR,1338.0,1338.0,4.0,1973.0,BRASIL,BRASIL,AVIAO,***,FORA DE AERODROMO,FORA DE AERODROMO,CRUZEIRO,PRIVADA,DESTRUIDA,1.0,87061,87061,87061,87061,ACIDENTE,1.4008333333333,-57.37638888888,ORIXIMINA,PA,BRASIL,FAER,16/04/2025,15:20:00,NAO,ATIVA,A-060/CENIPA/2025,NAO,,0,1,NAO
87060,PRZBQ,***,AVIAO,FLYER INDUSTRIA AERONAUTICA LTDA,RV-10,ZZZZ,PISTAO,MONOMOTOR,1224.0,1224.0,4.0,2013.0,BRASIL,BRASIL,AVIAO,***,FAZENDA SANTA TEREZA,ARAGARCAS,POUSO,EXPERIMENTAL,LEVE,0.0,87060,87060,87060,87060,INCIDENTE GRAVE,-16.62555555555,-49.34944444444,GOIANIA,GO,BRASIL,SBNV,29/04/2025,18:30:00,SIM,FINALIZADA,***,NAO,,0,1,NAO
87059,PSJBP,***,***,AIR TRACTOR,AT-502B,AT5T,,MONOMOTOR,3629.0,3629.0,,,BRASIL,BRASIL,***,***,FAZENDA MARANATA,FAZENDA MARANATA,DECOLAGEM,PRIVADA,SUBSTANCIAL,0.0,87059,87059,87059,87059,ACIDENTE,-10.61555555555,-51.98055555555,PORTO ALEGRE DO NORTE,MT,BRASIL,SIRQ,28/04/2025,14:55:00,NAO,ATIVA,A-067/CENIPA/2025,NAO,,0,1,NAO
87058,PPMSR,***,AVIAO,PIPER AIRCRAFT,PA-34-220T,PA34,PISTAO,BIMOTOR,2155.0,2155.0,6.0,2012.0,BRASIL,BRASIL,AVIAO,***,FAZENDA MIMOSO,SOROCABA,DECOLAGEM,PRIVADA,SUBSTANCIAL,0.0,87058,87058,87058,87058,ACIDENTE,-19.05,-52.96555555555,CHAPADAO DO SUL,MS,BRASIL,SIFM,17/04/2025,11:45:00,SIM,ATIVA,A-061/CENIPA/2025,NAO,,0,1,SIM
87057,PRPRM,***,AVIAO,THRUSH AIRCRAFT,S2R-T34,SS2T,TURBOELICE,MONOMOTOR,2722.0,2722.0,0.0,2013.0,BRASIL,BRASIL,AVIAO,***,AERO AGRICOLA RIO CLARO,AERO AGRICOLA RIO CLARO,MANOBRA,AGRICOLA,DESTRUIDA,1.0,87057,87057,87057,87057,ACIDENTE,,,SAO JOSE DO RIO CLARO,MT,BRASIL,SJRT,19/04/2025,11:30:00,NAO,ATIVA,A-063/CENIPA/2025,NAO,,0,1,NAO
87056,PRTXE,***,AVIAO,PIPER AIRCRAFT,PA-25-235,PA25,PISTAO,MONOMOTOR,1315.0,1315.0,1.0,1968.0,BRASIL,BRASIL,AVIAO,***,AERODROMO NAO CADASTRADO,AERODROMO NAO CADASTRADO,DECOLAGEM,AGRICOLA,SUBSTANCIAL,0.0,87056,87056,87056,87056,ACIDENTE,-20.78138888888,-48.39583333333,TERRA ROXA,SP,BRASIL,ZZZZ,11/04/2025,09:00:00,SIM,ATIVA,A-056/CENIPA/2025,NAO,,0,2,NAO
87056,PTVTR,***,AVIAO,EMBRAER,EMB-202A,IPAN,PISTAO,MONOMOTOR,1800.0,1800.0,1.0,2011.0,BRASIL,BRASIL,AVIAO,***,AERODROMO NAO CADASTRADO,AERODROMO NAO CADASTRADO,POUSO,PRIVADA,SUBSTANCIAL,0.0,87056,87056,87056,87056,ACIDENTE,-20.78138888888,-48.39583333333,TERRA ROXA,SP,BRASIL,ZZZZ,11/04/2025,09:00:00,SIM,ATIVA,A-056/CENIPA/2025,NAO,,0,2,NAO
87054,PSAEV,***,AVIAO,EMBRAER,ERJ 190-400,E295,,BIMOTOR,61200.0,61200.0,0.0,2024.0,BRASIL,BRASIL,AVIAO,***,PRESIDENTE JUSCELINO KUBITSCHEK,VIRACOPOS,SUBIDA,REGULAR,LEVE,0.0,87054,87054,87054,87054,INCIDENTE,-15.87111111111,-47.91861111111,BRASILIA,DF,BRASIL,SBBR,21/04/2025,18:50:00,SIM,FINALIZADA,***,NAO,,0,1,NAO
87053,PSLIM,***,***,PIPER AIRCRAFT,PA-31T,PAY2,,BIMOTOR,4082.0,4082.0,,,BRASIL,BRASIL,***,***,FAZENDA CEOLIM,TERUEL IPANEMA ESTANCIA,DECOLAGEM,PRIVADA,LEVE,0.0,87053,87053,87053,87053,INCIDENTE GRAVE,-15.54555555555,-56.59416666666,NOSSA SENHORA DO LIVRAMENTO,MT,BRASIL,SI8Y,22/04/2025,12:00:00,SIM,ATIVA,IG-066/CENIPA/2025,NAO,,0,1,NAO
87052,PRTKI,***,AVIAO,ATR - GIE AVIONS DE TRANSPORT REGIONAL,ATR-72-212A (600),AT72,TURBOELICE,BIMOTOR,22800.0,22800.0,73.0,2011.0,BRASIL,BRASIL,AVIAO,***,HORACIO DE MATTOS,DEPUTADO LUIS EDUARDO MAGALHAES,APROXIMACAO FINAL,REGULAR,LEVE,0.0,87052,87052,87052,87052,INCIDENTE,-12.90861111111,-38.3225,SALVADOR,BA,BRASIL,SBSV,17/04/2025,20:06:00,SIM,FINALIZADA,***,NAO,,0,1,NAO
87051,PRYYH,***,AVIAO,AIRBUS,A320-251N,A20N,JATO,BIMOTOR,77000.0,77000.0,,2017.0,BRASIL,BRASIL,AVIAO,***,GOVERNADOR JORGE TEIXEIRA DE OLIVEIRA,PLACIDO DE CASTRO,DECOLAGEM,REGULAR,LEVE,0.0,87051,87051,87051,87051,INCIDENTE,-8.713611111111,-63.90277777777,PORTO VELHO,RO,BRASIL,SBPV,19/04/2025,04:30:00,SIM,FINALIZADA,***,NAO,,0,1,NAO
87050,PSSBB,***,***,EMBRAER,EMB-203,IPAN,,MONOMOTOR,1900.0,1900.0,,,BRASIL,BRASIL,***,***,AERODROMO NAO CADASTRADO,AERODROMO NAO CADASTRADO,DECOLAGEM,AGRICOLA,SUBSTANCIAL,0.0,87050,87050,87050,87050,ACIDENTE,-17.72916666666,-51.65583333333,JATAI,GO,BRASIL,NCAD,19/04/2025,13:24:00,NAO,ATIVA,A-062/CENIPA/2025,NAO,,0,1,NAO
87049,PRCFX,***,HELICOPTERO,AGUSTA,AB139,A139,TURBOEIXO,BIMOTOR,6800.0,6800.0,17.0,2006.0,BRASIL,BRASIL,HELICOPTERO,***,JACAREPAGUA,SKANDI SALVADOR,POUSO,TAXI AEREO,SUBSTANCIAL,0.0,87049,87049,87049,87049,ACIDENTE,,,NAO IDENTIFICADA,***,BRASIL,NCAD,20/04/2025,18:30:00,NAO,ATIVA,A-064/CENIPA/2025,NAO,,0,1,NAO
87048,PRTYQ,***,AVIAO,AIRBUS,A320-214,A320,***,SEM TRACAO,78000.0,78000.0,0.0,2015.0,BRASIL,BRASIL,AVIAO,***,DEPUTADO LUIS EDUARDO MAGALHAES,CONGONHAS,DECOLAGEM,REGULAR,LEVE,0.0,87048,87048,87048,87048,INCIDENTE,-12.90861111111,-38.3225,SALVADOR,BA,BRASIL,SBSV,20/04/2025,10:15:00,SIM,FINALIZADA,***,NAO,,0,1,NAO
87047,PRMYM,***,AVIAO,AIRBUS,A319-112,A319,JATO,BIMOTOR,75500.0,75500.0,154.0,2011.0,BRASIL,BRASIL,AVIAO,***,SANTOS DUMONT,CONGONHAS,DESCIDA,REGULAR,LEVE,0.0,87047,87047,87047,87047,INCIDENTE,-23.62611111111,-46.65638888888,SAO PAULO,SP,BRASIL,SBSP,16/04/2025,00:15:00,SIM,FINALIZADA,***,NAO,,0,1,NAO
87046,PPJFF,***,AVIAO,PIPER AIRCRAFT,PA-46-500TP,P46T,TURBOELICE,MONOMOTOR,2310.0,2310.0,,,BRASIL,BRASIL,AVIAO,***,FRANK MILOYE MILENKOVICH,CONDOMINIO MENEGA,DESCIDA,PRIVADA,LEVE,0.0,87046,87046,87046,87046,INCIDENTE,,,PORTO ALEGRE,RS,BRASIL,FAER,02/04/2025,22:03:00,SIM,FINALIZADA,***,NAO,,0,1,NAO
87045,C-FEGI,***,AVIAO,BOEING COMPANY,B737-9,B739,,SEM TRACAO,252700.0,252700.0,,,CANADA,CANADA,AVIAO,***,TORONTO PEARSON INTERNATIONAL AIRPORT,GOVERNADOR ANDRE FRANCO MONTORO,POUSO,REGULAR,LEVE,0.0,87045,87045,87045,87045,INCIDENTE,-23.43555555555,-46.47305555555,GUARULHOS,SP,BRASIL,SBGR,13/04/2025,12:15:00,SIM,FINALIZADA,***,NAO,,0,1,NAO
87043,PSRRG,***,***,AIR TRACTOR,AT-502B,AT5T,,MONOMOTOR,3629.0,3629.0,,,BRASIL,BRASIL,***,***,MARACAJU,FORA DE AERODROMO,POUSO,AGRICOLA,LEVE,0.0,87043,87043,87043,87043,INCIDENTE,-21.62972222222,-55.91527777777,GUIA LOPES DA LAGUNA,MS,BRASIL,FAER,14/04/2025,21:15:00,SIM,FINALIZADA,***,NAO,,0,1,SIM
87042,PRXGT,***,AVIAO,HAWKER BEECHCRAFT,C90GT,BE9L,TURBOELICE,BIMOTOR,4581.0,4581.0,8.0,2007.0,BRASIL,BRASIL,AVIAO,***,GURUPI,FAZENDA ESTRELA DO ARAGUAIA,CRUZEIRO,PRIVADA,LEVE,0.0,87042,87042,87042,87042,INCIDENTE,-10.18277777777,-48.54527777777,PORTO NACIONAL,TO,BRASIL,FAER,16/04/2025,19:30:00,SIM,FINALIZADA,***,NAO,,0,1,NAO
87039,PRLSO,***,AVIAO,CESSNA AIRCRAFT,210L,C210,PISTAO,MONOMOTOR,1724.0,1724.0,6.0,0.0,BRASIL,BRASIL,AVIAO,***,MATURACA,POUSO DA AGUIA,TAXI,TAXI AEREO,NENHUM,0.0,87039,87039,87039,87039,INCIDENTE,2.7872222222222,-60.59583333333,CANTA,RR,BRASIL,SWPD,08/04/2025,20:30:00,SIM,FINALIZADA,***,NAO,,0,1,NAO
87038,PTJLK,***,AVIAO,CESSNA AIRCRAFT,U206F,C206,PISTAO,MONOMOTOR,1633.0,1633.0,6.0,1974.0,BRASIL,BRASIL,AVIAO,***,OLOMAI,MALBORO,CRUZEIRO,TAXI AEREO,NENHUM,0.0,87038,87038,87038,87038,INCIDENTE,3.545,-63.18222222222,ALTO ALEGRE,RR,BRASIL,FAER,20/03/2025,14:00:00,SIM,FINALIZADA,***,NAO,,0,1,NAO
87037,PTWMK,***,AVIAO,CESSNA AIRCRAFT,A188B,C188,PISTAO,MONOMOTOR,1814.0,1814.0,1.0,1973.0,BRASIL,BRASIL,AVIAO,***,FORA DE AERODROMO,FORA DE AERODROMO,MANOBRA,AGRICOLA,NENHUM,0.0,87037,87037,87037,87037,INCIDENTE GRAVE,-32.21111111111,-52.96222222222,ARROIO GRANDE,RS,BRASIL,FAER,14/04/2025,10:45:00,SIM,FINALIZADA,***,NAO,,0,1,NAO
87036,PPDPD,***,AVIAO,CESSNA AIRCRAFT,210N,C210,PISTAO,MONOMOTOR,1724.0,1724.0,6.0,1979.0,BRASIL,BRASIL,AVIAO,***,PALIMIU,POUSO DA AGUIA,POUSO,***,LEVE,0.0,87036,87036,87036,87036,INCIDENTE GRAVE,2.7872222222222,-60.59583333333,CANTA,RR,BRASIL,SWPD,12/04/2025,21:15:00,SIM,ATIVA,IG-058/CENIPA/2025,NAO,,0,1,NAO
87035,PRAXX,***,AVIAO,EMBRAER,ERJ 190-200 IGW,E190,JATO,BIMOTOR,52290.0,52290.0,125.0,2013.0,BRASIL,BRASIL,AVIAO,***,AFONSO PENA,SALGADO FILHO,DECOLAGEM,REGULAR,LEVE,0.0,87035,87035,87035,87035,INCIDENTE,-25.53166666666,-49.17611111111,CURITIBA,PR,BRASIL,SBCT,11/04/2025,18:30:00,SIM,FINALIZADA,***,NAO,,0,1,NAO
87034,PRYRA,***,AVIAO,AIRBUS,A320-251N,A320,JATO,BIMOTOR,77000.0,77000.0,183.0,2016.0,BRASIL,BRASIL,AVIAO,***,ANTONIO CARLOS JOBIM / GALEAO,GUARARAPES - GILBERTO FREYRE,APROXIMACAO FINAL,REGULAR,LEVE,0.0,87034,87034,87034,87034,INCIDENTE,-8.126388888888,-34.92277777777,RECIFE,PE,BRASIL,SBRF,13/04/2025,17:30:00,SIM,FINALIZADA,***,NAO,,0,1,NAO
87033,PPPAF,***,AVIAO,SOCATA,TBM700N,TBM7,TURBOELICE,MONOMOTOR,3354.0,3354.0,6.0,2007.0,BRASIL,BRASIL,AVIAO,***,SAO FELIX DO ARAGUAIA,Comandante Rolim Adolfo Amaro,CRUZEIRO,PRIVADA,NENHUM,0.0,87033,87033,87033,87033,INCIDENTE,-16.6325,-49.22111111111,GOIANIA,GO,BRASIL,FAER,13/04/2025,13:30:00,SIM,FINALIZADA,***,NAO,,0,1,NAO
87032,PRCHS,***,HELICOPTERO,SIKORSKY,S-92A,S92,TURBOEIXO,BIMOTOR,12020.0,12020.0,22.0,2009.0,BRASIL,BRASIL,HELICOPTERO,***,JACAREPAGUA,FORA DE AERODROMO,SUBIDA,TAXI AEREO,NENHUM,0.0,87032,87032,87032,87032,INCIDENTE,-22.9875,-43.37,RIO DE JANEIRO,RJ,BRASIL,SBJR,12/04/2025,16:30:00,SIM,FINALIZADA,***,NAO,,0,1,NAO
87031,PRXMG,***,AVIAO,BOEING,737-8 MAX,B38M,JATO,BIMOTOR,82190.0,82190.0,196.0,2019.0,BRASIL,BRASIL,AVIAO,***,EURICO DE AGUIAR SALLES,ANTONIO CARLOS JOBIM / GALEAO,POUSO,REGULAR,LEVE,0.0,87031,87031,87031,87031,INCIDENTE,-22.81,-43.25055555555,RIO DE JANEIRO,RJ,BRASIL,SBGL,14/04/2025,19:30:00,SIM,FINALIZADA,***,NAO,,0,1,NAO
87030,PRAUE,***,AVIAO,EMBRAER,ERJ 190-200 IGW,E190,JATO,BIMOTOR,52290.0,52290.0,0.0,2014.0,BRASIL,BRASIL,AVIAO,***,VIRACOPOS,PRESIDENTE PRUDENTE,SUBIDA,REGULAR,LEVE,0.0,87030,87030,87030,87030,INCIDENTE,-22.175,-51.42444444444,CAMPINAS,SP,BRASIL,FAER,09/04/2025,02:40:00,SIM,FINALIZADA,***,NAO,,0,1,NAO
87029,PRGXU,***,AVIAO,BOEING,737-8EH,B738,***,BIMOTOR,65990.0,65990.0,0.0,2014.0,BRASIL,BRASIL,AVIAO,***,SANTA GENOVEVA/GOIANIA,CONGONHAS,CRUZEIRO,REGULAR,NENHUM,0.0,87029,87029,87029,87029,INCIDENTE,,,BRASILIA,DF,BRASIL,FAER,12/04/2025,10:09:00,SIM,FINALIZADA,***,NAO,,0,1,NAO
87027,PRMHP,***,AVIAO,AIRBUS,A320-214,A320,JATO,BIMOTOR,77000.0,77000.0,184.0,2007.0,BRASIL,BRASIL,AVIAO,***,CONGONHAS,PRESIDENTE JUSCELINO KUBITSCHEK,DECOLAGEM,REGULAR,LEVE,0.0,87027,87027,87027,87027,INCIDENTE,-23.62611111111,-46.65638888888,SAO PAULO,SP,BRASIL,SBSP,11/04/2025,11:30:00,SIM,FINALIZADA,***,NAO,,0,1,NAO
87026,PRXBH,***,AVIAO,AIRBUS,A320,A320-,JATO,BIMOTOR,79000.0,79000.0,180.0,0.0,BRASIL,BRASIL,AVIAO,***,ATLAS BRASIL CANTANHEDE,PRESIDENTE JUSCELINO KUBITSCHEK,APROXIMACAO FINAL,REGULAR,LEVE,0.0,87026,87026,87026,87026,INCIDENTE,-15.87111111111,-47.91861111111,BRASILIA,DF,BRASIL,SBBR,09/04/2025,23:15:00,SIM,FINALIZADA,***,NAO,,0,1,NAO
87025,PRYRS,***,AVIAO,AIRBUS,A320-253N,A20N,JATO,BIMOTOR,77000.0,77000.0,182.0,2018.0,BRASIL,BRASIL,AVIAO,***,SANTA GENOVEVA/GOIANIA,GUARARAPES - GILBERTO FREYRE,POUSO,REGULAR,LEVE,0.0,87025,87025,87025,87025,INCIDENTE,-8.126388888888,-34.92277777777,RECIFE,PE,BRASIL,SBRF,08/04/2025,03:00:00,SIM,FINALIZADA,***,NAO,,0,1,NAO
87024,PRMAK,***,AVIAO,AIRBUS,A320-232,A320,JATO,BIMOTOR,77000.0,77000.0,166.0,2002.0,BRASIL,BRASIL,AVIAO,***,NAO IDENTIFICADO,GOVERNADOR ANDRE FRANCO MONTORO,POUSO,REGULAR,LEVE,0.0,87024,87024,87024,87024,INCIDENTE,-23.43555555555,-46.47305555555,GUARULHOS,SP,BRASIL,SBGR,04/04/2025,09:45:00,SIM,FINALIZADA,***,NAO,,0,1,NAO
87023,PRAXH,***,AVIAO,EMBRAER,ERJ 190-200 LR,E195,JATO,BIMOTOR,50790.0,50790.0,125.0,2012.0,BRASIL,BRASIL,AVIAO,***,VIRACOPOS,SANTOS DUMONT,DECOLAGEM,REGULAR,LEVE,0.0,87023,87023,87023,87023,INCIDENTE,-23.00694444444,-47.13444444444,CAMPINAS,SP,BRASIL,SBKP,08/04/2025,20:45:00,SIM,FINALIZADA,***,NAO,,0,1,NAO
87022,PRABK,***,AVIAO,RAYTHEON AIRCRAFT,58,BE58,PISTAO,BIMOTOR,2495.0,2495.0,6.0,1999.0,BRASIL,BRASIL,AVIAO,***,AERODROMO NACIONAL DE AVIACAO,FAZENDA VALE DOS SONHOS,DECOLAGEM,PRIVADA,SUBSTANCIAL,0.0,87022,87022,87022,87022,ACIDENTE,-16.51277777777,-51.11361111111,IPORA,GO,BRASIL,FAER,13/04/2025,11:00:00,SIM,ATIVA,A-059/CENIPA/2025,NAO,,0,1,SIM
87021,PTRDD,***,AVIAO,AIR TRACTOR,AT-402B,AT3T,TURBOELICE,MONOMOTOR,3175.0,3175.0,1.0,2018.0,BRASIL,BRASIL,AVIAO,***,FAZENDA GUATAMBU,FAZENDA GUATAMBU,DECOLAGEM,AGRICOLA,SUBSTANCIAL,0.0,87021,87021,87021,87021,ACIDENTE,-9.736388888888,-55.44666666666,NOVO MUNDO,MT,BRASIL,SD7S,05/04/2025,17:30:00,NAO,ATIVA,A-054/CENIPA/2025,NAO,,0,1,SIM
87020,PRTKK,***,AVIAO,ATR - GIE AVIONS DE TRANSPORT REGIONAL,ATR-72-212A,AT72,TURBOELICE,BIMOTOR,22800.0,22800.0,73.0,2012.0,BRASIL,BRASIL,AVIAO,***,VIRACOPOS,LEITE LOPES,SUBIDA,REGULAR,NENHUM,0.0,87020,87020,87020,87020,INCIDENTE,-23.00694444444,-47.13444444444,CAMPINAS,SP,BRASIL,SBKP,06/04/2025,04:30:00,SIM,FINALIZADA,***,NAO,,0,1,NAO
87019,PRMBU,***,AVIAO,AIRBUS,A319-132,A319,JATO,BIMOTOR,75500.0,75500.0,154.0,2008.0,BRASIL,BRASIL,AVIAO,***,MARECHAL RONDON,CONGONHAS,POUSO,REGULAR,NENHUM,0.0,87019,87019,87019,87019,INCIDENTE,-23.62611111111,-46.65638888888,SAO PAULO,SP,BRASIL,SBSP,31/03/2025,18:00:00,SIM,FINALIZADA,***,NAO,,0,1,NAO
87018,PRTKK,***,AVIAO,ATR - GIE AVIONS DE TRANSPORT REGIONAL,ATR-72-212A,AT72,TURBOELICE,BIMOTOR,22800.0,22800.0,73.0,2012.0,BRASIL,BRASIL,AVIAO,***,GUARARAPES - GILBERTO FREYRE,FERNANDO DE NORONHA,CRUZEIRO,REGULAR,NENHUM,0.0,87018,87018,87018,87018,INCIDENTE,-8.126388888888,-34.92277777777,RECIFE,PE,BRASIL,SBRF,03/02/2025,10:00:00,SIM,FINALIZADA,***,NAO,,0,1,NAO
87017,PRMYH,***,AVIAO,AIRBUS,A320-214,A320,JATO,BIMOTOR,77000.0,77000.0,184.0,2010.0,BRASIL,BRASIL,AVIAO,***,PRESIDENTE JUSCELINO KUBITSCHEK,EDUARDO GOMES,POUSO,REGULAR,LEVE,0.0,87017,87017,87017,87017,INCIDENTE,-3.041111111111,-60.05055555555,MANAUS,AM,BRASIL,SBEG,23/10/2024,17:19:00,SIM,FINALIZADA,***,NAO,,0,1,NAO
87016,PRGTV,***,AVIAO,BOEING,737-8EH,B738,TURBOEIXO,BIMOTOR,70533.0,70533.0,187.0,2007.0,BRASIL,BRASIL,AVIAO,***,ANTONIO CARLOS JOBIM / GALEAO,ZUMBI DOS PALMARES,POUSO,REGULAR,LEVE,0.0,87016,87016,87016,87016,INCIDENTE,-9.510833333333,-35.79166666666,MACEIO,AL,BRASIL,SBMO,02/01/2024,13:45:00,SIM,FINALIZADA,***,NAO,,0,1,NAO
87013,PRAKN,***,AVIAO,ATR - GIE AVIONS DE TRANSPORT REGIONAL,ATR-72-212A (600),AT76,TURBOELICE,BIMOTOR,22000.0,22000.0,0.0,2021.0,BRASIL,BRASIL,AVIAO,***,USIMINAS,TANCREDO NEVES,DECOLAGEM,REGULAR,LEVE,0.0,87013,87013,87013,87013,INCIDENTE,-19.47055555555,-42.48805555555,SANTANA DO PARAISO,MG,BRASIL,SBIP,23/10/2024,13:00:00,SIM,FINALIZADA,***,NAO,,0,1,NAO
87010,PPFUL,***,AVIAO,PIPER AIRCRAFT,PA-46R-350T,PA46,PISTAO,MONOMOTOR,1969.0,1969.0,6.0,2011.0,BRASIL,BRASIL,AVIAO,***,SANTA GENOVEVA/GOIANIA,SANTA GENOVEVA/GOIANIA,POUSO,PRIVADA,NENHUM,0.0,87010,87010,87010,87010,INCIDENTE GRAVE,-16.6325,-49.22111111111,GOIANIA,GO,BRASIL,SBGO,10/04/2025,19:45:00,SIM,FINALIZADA,***,NAO,,0,1,NAO
87009,PROTS,***,***,AIRBUS HELICOPTERS,EC175 B,EC75,,BIMOTOR,7800.0,7800.0,,,BRASIL,BRASIL,***,***,FORA DE AERODROMO,Marica,CRUZEIRO,TAXI AEREO,NENHUM,0.0,87009,87009,87009,87009,INCIDENTE,-22.91805555555,-42.82888888888,MARICA,RJ,BRASIL,SBMI,09/03/2025,15:45:00,SIM,FINALIZADA,***,NAO,,0,1,NAO
87008,PROHX,***,HELICOPTERO,LEONARDO S.P.A,AW139,A139,***,***,0.0,0.0,,2016.0,BRASIL,BRASIL,HELICOPTERO,***,JACAREPAGUA,FORA DE AERODROMO,CRUZEIRO,TAXI AEREO,NENHUM,0.0,87008,87008,87008,87008,INCIDENTE,,,RIO DE JANEIRO,RJ,BRASIL,NCAD,10/04/2025,17:30:00,SIM,FINALIZADA,***,NAO,,0,1,NAO
87007,PRAXU,***,AVIAO,EMBRAER,ERJ 190-200 IGW,E190,TURBOEIXO,BIMOTOR,52290.0,52290.0,125.0,2013.0,BRASIL,BRASIL,AVIAO,***,CONGONHAS,SANTOS DUMONT,SUBIDA,REGULAR,LEVE,0.0,87007,87007,87007,87007,INCIDENTE,-23.62611111111,-46.65638888888,SAO PAULO,SP,BRASIL,SBSP,02/08/2024,15:15:00,SIM,FINALIZADA,***,NAO,,0,1,NAO
87006,PRYYJ,***,AVIAO,AIRBUS,A320-251N,A20N,***,BIMOTOR,79000.0,79000.0,,2017.0,BRASIL,BRASIL,AVIAO,***,VIRACOPOS,EDUARDO GOMES,CRUZEIRO,REGULAR,NENHUM,0.0,87006,87006,87006,87006,INCIDENTE,-23.00694444444,-47.13444444444,CAMPINAS,SP,BRASIL,SBKP,02/08/2024,13:00:00,SIM,FINALIZADA,***,NAO,,0,1,NAO
87004,PRZLB,***,AVIAO,VALESSA BRINGHENTI,RV-10,ZZZZ,PISTAO,MONOMOTOR,1224.0,1224.0,4.0,0.0,BRASIL,BRASIL,AVIAO,***,DEPUTADO LUIS EDUARDO MAGALHAES,CESCONETTO,POUSO,EXPERIMENTAL,LEVE,0.0,87004,87004,87004,87004,INCIDENTE GRAVE,-16.29361111111,-39.55944444444,EUNAPOLIS,BA,BRASIL,SW2A,10/04/2025,11:30:00,SIM,FINALIZADA,***,NAO,,0,1,NAO
87003,PTWVL,***,AVIAO,CESSNA AIRCRAFT,150H,C150,PISTAO,MONOMOTOR,726.0,726.0,2.0,1968.0,BRASIL,BRASIL,AVIAO,***,AEROCLUBE DE CAMPINA GRANDE,Clube Estancia Ouro Verde,DECOLAGEM,PRIVADA,SUBSTANCIAL,0.0,87003,87003,87003,87003,ACIDENTE,-7.178333333333,-35.99027777777,CAMPINA GRANDE,PB,BRASIL,SNKB,09/04/2025,14:30:00,SIM,ATIVA,A-055/CENIPA/2025,NAO,,0,1,NAO
87001,PSGPN,***,AVIAO,BOEING,737-8 MAX,B38,JATO,BIMOTOR,82644.0,82644.0,0.0,2022.0,BRASIL,BRASIL,AVIAO,***,VIRACOPOS,ANTONIO CARLOS JOBIM / GALEAO,POUSO,REGULAR,LEVE,0.0,87001,87001,87001,87001,INCIDENTE,-22.81,-43.25055555555,RIO DE JANEIRO,RJ,BRASIL,SBGL,27/11/2024,16:45:00,SIM,FINALIZADA,***,NAO,,0,1,NAO
87000,PRYRT,***,AVIAO,AIRBUS,A320-251N,A20N,***,***,0.0,0.0,,,BRASIL,BRASIL,AVIAO,***,SALGADO FILHO,CONGONHAS,DECOLAGEM,REGULAR,LEVE,0.0,87000,87000,87000,87000,INCIDENTE,-29.99472222222,-51.17111111111,PORTO ALEGRE,RS,BRASIL,SBPA,12/11/2024,12:15:00,SIM,FINALIZADA,***,NAO,,0,1,NAO
86999,PSGRG,***,AVIAO,BOEING COMPANY,B737-8 MAX,B38M,,BIMOTOR,82190.0,82190.0,0.0,2024.0,BRASIL,BRASIL,AVIAO,***,SANTA GENOVEVA/GOIANIA,CONGONHAS,POUSO,REGULAR,LEVE,0.0,86999,86999,86999,86999,INCIDENTE,-23.62611111111,-46.65638888888,SAO PAULO,SP,BRASIL,SBSP,23/10/2024,12:15:00,SIM,FINALIZADA,***,NAO,,0,1,NAO
86998,PRYYH,***,AVIAO,AIRBUS,A320-251N,A20N,JATO,BIMOTOR,77000.0,77000.0,,2017.0,BRASIL,BRASIL,AVIAO,***,SANTA GENOVEVA/GOIANIA,PORTO SEGURO,POUSO,REGULAR,LEVE,0.0,86998,86998,86998,86998,INCIDENTE,-16.43805555555,-39.07777777777,PORTO SEGURO,BA,BRASIL,SBPS,16/10/2024,10:19:00,SIM,FINALIZADA,***,NAO,,0,1,NAO
86997,PRATV,***,AVIAO,ATR - GIE AVIONS DE TRANSPORT REGIONAL,ATR-72-212A,AT72,TURBOELICE,BIMOTOR,23000.0,23000.0,75.0,2012.0,BRASIL,BRASIL,AVIAO,***,VIRACOPOS,ANTONIO CARLOS JOBIM / GALEAO,POUSO,REGULAR,LEVE,0.0,86997,86997,86997,86997,INCIDENTE,-22.91,-43.1625,RIO DE JANEIRO,RJ,BRASIL,SBGL,14/10/2024,18:45:00,SIM,FINALIZADA,***,NAO,,0,1,NAO
86996,PRAXP,***,AVIAO,EMBRAER,ERJ 190-200 IGW,E190,JATO,BIMOTOR,52290.0,52290.0,125.0,2013.0,BRASIL,BRASIL,AVIAO,***,CONGONHAS,SANTOS DUMONT,APROXIMACAO FINAL,REGULAR,LEVE,0.0,86996,86996,86996,86996,INCIDENTE,-22.91,-43.1625,RIO DE JANEIRO,RJ,BRASIL,SBRJ,08/10/2024,01:00:00,SIM,FINALIZADA,***,NAO,,0,1,NAO
86995,PRAXO,***,AVIAO,EMBRAER,ERJ 190-200 IGW,E190,JATO,BIMOTOR,52290.0,52290.0,125.0,2012.0,BRASIL,BRASIL,AVIAO,***,DEPUTADO LUIS EDUARDO MAGALHAES,VIRACOPOS,DECOLAGEM,REGULAR,LEVE,0.0,86995,86995,86995,86995,INCIDENTE,-12.90861111111,-38.3225,SALVADOR,BA,BRASIL,SBSV,12/01/2025,18:45:00,SIM,FINALIZADA,***,NAO,,0,1,NAO
86994,PRYRH,***,AVIAO,AIRBUS,A320-251N,A320,JATO,BIMOTOR,77000.0,77000.0,183.0,2017.0,BRASIL,BRASIL,AVIAO,***,GUARARAPES - GILBERTO FREYRE,VIRACOPOS,CRUZEIRO,REGULAR,NENHUM,0.0,86994,86994,86994,86994,INCIDENTE,-12.90861111111,-38.3225,SALVADOR,BA,BRASIL,SBSV,06/04/2025,22:00:00,SIM,FINALIZADA,***,NAO,,0,1,NAO
86993,PRGXX,***,AVIAO,BOEING COMPANY,737-8EH,B738,JATO,BIMOTOR,70533.0,70533.0,196.0,0.0,BRASIL,BRASIL,AVIAO,***,SANTA GENOVEVA/GOIANIA,CONGONHAS,POUSO,REGULAR,NENHUM,0.0,86993,86993,86993,86993,INCIDENTE,-23.62611111111,-46.65638888888,SAO PAULO,SP,BRASIL,SBSP,05/04/2025,20:00:00,SIM,FINALIZADA,***,NAO,,0,1,NAO
86991,PRAXL,***,AVIAO,EMBRAER,ERJ 190-200 IGW,E190,JATO,BIMOTOR,52290.0,52290.0,125.0,2012.0,BRASIL,BRASIL,AVIAO,***,VIRACOPOS,MINISTRO VICTOR KONDER,CRUZEIRO,REGULAR,NENHUM,0.0,86991,86991,86991,86991,INCIDENTE,-27.67027777777,-48.5525,FLORIANOPOLIS,SC,BRASIL,SBFL,04/04/2025,21:30:00,SIM,FINALIZADA,***,NAO,,0,1,NAO
86990,N178DZ,***,AVIAO,BOEING COMPANY,767-300 Series,B763,,***,179000.0,179000.0,,1998.0,ESTADOS UNIDOS,ESTADOS UNIDOS,AVIAO,***,ANTONIO CARLOS JOBIM / GALEAO,JOHN F. KENNEDY INTERNATIONAL AIRPORT,CRUZEIRO,REGULAR,***,0.0,86990,86990,86990,86990,INCIDENTE,-23.43555555555,-46.47305555555,GUARULHOS,SP,BRASIL,SBGR,21/01/2025,06:00:00,SIM,FINALIZADA,***,NAO,,0,1,NAO
86989,PRGTH,***,AVIAO,BOEING,737-8EH,B738,JATO,BIMOTOR,79000.0,79000.0,194.0,2006.0,BRASIL,BRASIL,AVIAO,***,CONGONHAS,LAURO CARNEIRO DE LOYOLA,POUSO,REGULAR,NENHUM,0.0,86989,86989,86989,86989,INCIDENTE,-26.22305555555,-48.79777777777,JOINVILLE,SC,BRASIL,SBJV,07/01/2025,15:45:00,SIM,FINALIZADA,***,NAO,,0,1,NAO
86988,PSAJG,***,***,EMBRAER,EMB-505,E55P,,BIMOTOR,8415.0,8415.0,,,BRASIL,BRASIL,***,***,GENERAL LEITE DE CASTRO,RONDONOPOLIS,POUSO,PRIVADA,LEVE,0.0,86988,86988,86988,86988,INCIDENTE,-16.58805555555,-54.72166666666,RONDONOPOLIS,MT,BRASIL,SBRD,09/04/2025,01:30:00,SIM,FINALIZADA,***,NAO,,0,1,NAO
86987,PUFAI,***,ULTRALEVE,FLYER LTDA,PELICAN 500BR,ULAC,PISTAO,MONOMOTOR,600.0,600.0,2.0,2007.0,BRASIL,BRASIL,ULTRALEVE,***,VALE EUROPEU,VALE EUROPEU,CRUZEIRO,PRIVADA,NENHUM,0.0,86987,86987,86987,86987,INCIDENTE GRAVE,,,GARUVA,SC,BRASIL,FAER,05/04/2025,14:45:00,SIM,FINALIZADA,***,NAO,,0,1,NAO
86986,PSLBK,***,AVIAO,AIRBUS S.A.S.,A321-271NX,A321,,BIMOTOR,89000.0,89000.0,0.0,2024.0,BRASIL,BRASIL,AVIAO,***,PINTO MARTINS,GOVERNADOR ANDRE FRANCO MONTORO,DECOLAGEM,REGULAR,LEVE,0.0,86986,86986,86986,86986,INCIDENTE,-3.775833333333,-38.53222222222,FORTALEZA,CE,BRASIL,SBFZ,11/12/2024,20:21:00,SIM,FINALIZADA,***,NAO,,0,1,NAO
86985,PSLBC,***,AVIAO,AIRBUS S.A.S.,A321-271NX,A21N,,BIMOTOR,89000.0,89000.0,0.0,2023.0,BRASIL,BRASIL,AVIAO,***,GOVERNADOR ANDRE FRANCO MONTORO,PRESIDENTE JUSCELINO KUBITSCHEK,INSPECAO DE TRANSITO/INTERVOO,REGULAR,LEVE,0.0,86985,86985,86985,86985,INCIDENTE,-15.87111111111,-47.91861111111,BRASILIA,DF,BRASIL,FAER,18/12/2024,12:10:00,SIM,FINALIZADA,***,NAO,,0,1,NAO
86984,PTVUR,***,AVIAO,EMBRAER,EMB-202A,IPAN,PISTAO,MONOMOTOR,1800.0,1800.0,1.0,2011.0,BRASIL,BRASIL,AVIAO,***,FORA DE AERODROMO,FORA DE AERODROMO,SUBIDA,AGRICOLA,SUBSTANCIAL,0.0,86984,86984,86984,86984,ACIDENTE,-3.403611111111,-47.97222222222,PARAGOMINAS,PA,BRASIL,FAER,01/04/2025,12:00:00,SIM,ATIVA,A-049/CENIPA/2025,NAO,,0,1,NAO
86983,PRCPX,***,***,SIKORSKY AIRCRAFT,S-92A,S92,,BIMOTOR,12020.0,12020.0,,,BRASIL,BRASIL,***,***,FORA DE AERODROMO,CABO FRIO,APROXIMACAO FINAL,TAXI AEREO,NENHUM,0.0,86983,86983,86983,86983,INCIDENTE,-22.92083333333,-42.07138888888,CABO FRIO,RJ,BRASIL,SBCB,07/04/2025,11:00:00,SIM,FINALIZADA,***,NAO,,0,1,NAO
86981,PRYSH,***,AVIAO,AIRBUS,A320-251N,A20N,JATO,BIMOTOR,77000.0,77000.0,0.0,2021.0,BRASIL,BRASIL,AVIAO,***,GUARARAPES - GILBERTO FREYRE,CONGONHAS,CRUZEIRO,REGULAR,NENHUM,0.0,86981,86981,86981,86981,INCIDENTE,-12.90861111111,-38.3225,SALVADOR,BA,BRASIL,SBSV,28/02/2025,13:00:00,SIM,FINALIZADA,***,NAO,,0,1,NAO
86980,PTMXB,***,AVIAO,AIRBUS,A321-231,A321,JATO,BIMOTOR,89000.0,89000.0,232.0,2007.0,BRASIL,BRASIL,AVIAO,***,GOVERNADOR ANDRE FRANCO MONTORO,CAMPO GRANDE,DECOLAGEM,REGULAR,NENHUM,0.0,86980,86980,86980,86980,INCIDENTE,-23.43555555555,-46.47305555555,GUARULHOS,SP,BRASIL,SBGR,03/04/2025,16:15:00,SIM,FINALIZADA,***,NAO,,0,1,NAO
86979,PRMHW,***,AVIAO,AIRBUS,A320-214,A320,JATO,BIMOTOR,77000.0,77000.0,184.0,2008.0,BRASIL,BRASIL,AVIAO,***,ZUMBI DOS PALMARES,GOVERNADOR ANDRE FRANCO MONTORO,DESCIDA,REGULAR,NENHUM,0.0,86979,86979,86979,86979,INCIDENTE,-23.43555555555,-46.47305555555,GUARULHOS,SP,BRASIL,SBGR,03/04/2025,16:15:00,SIM,FINALIZADA,***,NAO,,0,1,NAO
86978,PRXMU,***,AVIAO,BOEING,737-8 MAX,B38M,TURBOEIXO,BIMOTOR,82644.0,82644.0,196.0,0.0,BRASIL,BRASIL,AVIAO,***,NAO IDENTIFICADO,GOVERNADOR ANDRE FRANCO MONTORO,POUSO,REGULAR,LEVE,0.0,86978,86978,86978,86978,INCIDENTE,-23.43555555555,-46.47305555555,GUARULHOS,SP,BRASIL,SBGR,05/04/2025,10:15:00,SIM,FINALIZADA,***,NAO,,0,1,NAO
86977,PRYSR,***,AVIAO,AIRBUS S.A.S.,A320-251N,A20N,JATO,BIMOTOR,77000.0,77000.0,183.0,2024.0,BRASIL,BRASIL,AVIAO,***,SALGADO FILHO,TANCREDO NEVES,ESTACIONAMENTO,REGULAR,NENHUM,0.0,86977,86977,86977,86977,INCIDENTE,-29.99472222222,-51.17111111111,PORTO ALEGRE,RS,BRASIL,SBPA,03/04/2025,11:30:00,SIM,FINALIZADA,***,NAO,,0,1,NAO
86976,PRSDH,***,AVIAO,BOEING COMPANY,B737-55D,B735,***,***,60237.0,60237.0,,1992.0,BRASIL,BRASIL,AVIAO,***,DEPUTADO LUIS EDUARDO MAGALHAES,SALGADO FILHO,INSPECAO DE TRANSITO/INTERVOO,***,LEVE,0.0,86976,86976,86976,86976,INCIDENTE,-29.99472222222,-51.17111111111,PORTO ALEGRE,RS,BRASIL,SBPA,04/04/2025,16:45:00,SIM,FINALIZADA,***,NAO,,0,1,NAO
86975,F-GSQE,***,AVIAO,BOEING COMPANY,B777-328ER,B773,,SEM TRACAO,299370.0,299370.0,,2005.0,FRANCA,FRANCA,AVIAO,***,ANTONIO CARLOS JOBIM / GALEAO,CHARLES DE GAULLE,CRUZEIRO,REGULAR,***,0.0,86975,86975,86975,86975,INCIDENTE,-22.81,-43.25055555555,RIO DE JANEIRO,RJ,BRASIL,SBGL,02/04/2025,05:45:00,SIM,FINALIZADA,***,NAO,,0,1,NAO
86974,PRGTC,***,AVIAO,BOEING,737-8EH,B738,JATO,BIMOTOR,79000.0,79000.0,194.0,2006.0,BRASIL,BRASIL,AVIAO,***,PRESIDENTE JUSCELINO KUBITSCHEK,ANTONIO CARLOS JOBIM / GALEAO,DECOLAGEM,REGULAR,LEVE,0.0,86974,86974,86974,86974,INCIDENTE,-15.87111111111,-47.91861111111,BRASILIA,DF,BRASIL,SBBR,23/03/2025,22:27:00,SIM,FINALIZADA,***,NAO,,0,1,NAO
86973,PRGUU,***,AVIAO,BOEING,737-8EH,B738,JATO,BIMOTOR,70533.0,70533.0,199.0,2012.0,BRASIL,BRASIL,AVIAO,***,MINISTRO VICTOR KONDER,ANTONIO CARLOS JOBIM / GALEAO,TAXI,REGULAR,NENHUM,0.0,86973,86973,86973,86973,INCIDENTE,-26.87861111111,-48.65083333333,NAVEGANTES,SC,BRASIL,SBNF,19/03/2025,19:23:00,SIM,FINALIZADA,***,NAO,,0,1,NAO
86972,PSLBM,***,AVIAO,AIRBUS S.A.S.,A321-271N,A21N,,***,89000.0,89000.0,,2024.0,BRASIL,BRASIL,AVIAO,***,GOVERNADOR ANDRE FRANCO MONTORO,ANTONIO CARLOS JOBIM / GALEAO,DECOLAGEM,REGULAR,LEVE,0.0,86972,86972,86972,86972,INCIDENTE,-23.43555555555,-46.47305555555,GUARULHOS,SP,BRASIL,SBGR,17/03/2025,13:30:00,SIM,FINALIZADA,***,NAO,,0,1,NAO
86971,PRSDL,***,AVIAO,BOEING,737-3S3,B733,JATO,BIMOTOR,63276.0,63276.0,6.0,1988.0,BRASIL,BRASIL,AVIAO,***,PRESIDENTE JUSCELINO KUBITSCHEK,GOVERNADOR ANDRE FRANCO MONTORO,OUTRA FASE,***,NENHUM,0.0,86971,86971,86971,86971,INCIDENTE,-15.87111111111,-47.91861111111,BRASILIA,DF,BRASIL,SBBR,11/03/2025,04:00:00,SIM,FINALIZADA,***,NAO,,0,1,NAO
86969,PRAXL,***,AVIAO,EMBRAER,ERJ 190-200 IGW,E190,JATO,BIMOTOR,52290.0,52290.0,125.0,2012.0,BRASIL,BRASIL,AVIAO,***,VIRACOPOS,MINISTRO VICTOR KONDER,CRUZEIRO,REGULAR,NENHUM,0.0,86969,86969,86969,86969,INCIDENTE,-27.67027777777,-48.5525,FLORIANOPOLIS,SC,BRASIL,SBFL,24/02/2025,18:00:00,SIM,FINALIZADA,***,NAO,,0,1,NAO
86968,PRVBL,***,AVIAO,BOEING,737-8EH,B738,JATO,BIMOTOR,79000.0,79000.0,197.0,2007.0,BRASIL,BRASIL,AVIAO,***,GOVERNADOR ANDRE FRANCO MONTORO,PINTO MARTINS,DECOLAGEM,REGULAR,LEVE,0.0,86968,86968,86968,86968,INCIDENTE,-23.43555555555,-46.47305555555,GUARULHOS,SP,BRASIL,SBGR,22/02/2025,11:45:00,SIM,FINALIZADA,***,NAO,,0,1,NAO
86967,PRAQL,***,AVIAO,ATR - GIE AVIONS DE TRANSPORT REGIONAL,ATR-72-212A,AT72,TURBOELICE,BIMOTOR,23000.0,23000.0,75.0,2013.0,BRASIL,BRASIL,AVIAO,***,SANTA MARIA,VIRACOPOS,DECOLAGEM,REGULAR,NENHUM,0.0,86967,86967,86967,86967,INCIDENTE,-29.71083333333,-53.69222222222,SANTA MARIA,RS,BRASIL,SBSM,13/02/2025,14:30:00,SIM,FINALIZADA,***,NAO,,0,1,NAO
86966,PRGGQ,***,AVIAO,BOEING,737-8EH,B738,JATO,BIMOTOR,70533.0,70533.0,193.0,2009.0,BRASIL,BRASIL,AVIAO,***,SANTA GENOVEVA/GOIANIA,CONGONHAS,POUSO,REGULAR,LEVE,0.0,86966,86966,86966,86966,INCIDENTE,-23.62611111111,-46.65638888888,SAO PAULO,SP,BRASIL,SBSP,28/01/2025,17:45:00,SIM,FINALIZADA,***,NAO,,0,1,NAO
86965,PSAEJ,***,AVIAO,EMBRAER,ERJ 190-400,E295,,BIMOTOR,61200.0,61200.0,0.0,2022.0,BRASIL,BRASIL,AVIAO,***,VIRACOPOS,MINISTRO VICTOR KONDER,POUSO,REGULAR,LEVE,0.0,86965,86965,86965,86965,INCIDENTE,-26.87861111111,-48.65083333333,NAVEGANTES,SC,BRASIL,SBNF,22/01/2025,22:33:00,SIM,FINALIZADA,***,NAO,,0,1,NAO
86964,PRXMX,***,AVIAO,BOEING COMPANY,737-8 MAX,B38M,JATO,BIMOTOR,82644.0,82644.0,196.0,0.0,BRASIL,BRASIL,AVIAO,***,ANTONIO CARLOS JOBIM / GALEAO,EURICO DE AGUIAR SALLES,POUSO,REGULAR,LEVE,0.0,86964,86964,86964,86964,INCIDENTE,-20.25805555555,-40.28638888888,VITORIA,ES,BRASIL,SBVT,20/01/2025,17:30:00,SIM,FINALIZADA,***,NAO,,0,1,NAO
86962,PRAQN,***,AVIAO,ATR - GIE AVIONS DE TRANSPORT REGIONAL,ATR-72-212A,AT72,TURBOELICE,BIMOTOR,23000.0,23000.0,75.0,2013.0,BRASIL,BRASIL,AVIAO,***,ESTADUAL DARIO GUARITA,VIRACOPOS,POUSO,REGULAR,LEVE,0.0,86962,86962,86962,86962,INCIDENTE,-21.14416666666,-50.42638888888,CAMPINAS,SP,BRASIL,SBKP,27/12/2024,13:15:00,SIM,FINALIZADA,***,NAO,,0,1,NAO
86960,PRXMU,***,AVIAO,BOEING,737-8 MAX,B38M,TURBOEIXO,BIMOTOR,82644.0,82644.0,196.0,0.0,BRASIL,BRASIL,AVIAO,***,CONGONHAS,DEPUTADO LUIS EDUARDO MAGALHAES,APROXIMACAO FINAL,REGULAR,LEVE,0.0,86960,86960,86960,86960,INCIDENTE,-12.90861111111,-38.3225,SALVADOR,BA,BRASIL,SBSV,09/01/2025,12:26:00,SIM,FINALIZADA,***,NAO,,0,1,NAO
86959,PRMYM,***,AVIAO,AIRBUS,A319-112,A319,JATO,BIMOTOR,75500.0,75500.0,154.0,2011.0,BRASIL,BRASIL,AVIAO,***,GOVERNADOR ANDRE FRANCO MONTORO,SALGADO FILHO,SUBIDA,REGULAR,LEVE,0.0,86959,86959,86959,86959,INCIDENTE,,,SAO PAULO,SP,BRASIL,FAER,07/12/2024,18:00:00,SIM,FINALIZADA,***,NAO,,0,1,NAO
86958,PSBDF,***,***,HELIBRAS,AS 350 B3,AS50,,MONOMOTOR,2370.0,2370.0,,,BRASIL,BRASIL,***,***,PRESIDENTE JUSCELINO KUBITSCHEK,PRESIDENTE JUSCELINO KUBITSCHEK,APROXIMACAO FINAL,POLICIAL,LEVE,0.0,86958,86958,86958,86958,INCIDENTE,-15.87111111111,-47.91861111111,BRASILIA,DF,BRASIL,SBBR,06/04/2025,04:30:00,SIM,FINALIZADA,***,NAO,,0,1,NAO
86956,PUVPR,***,ULTRALEVE,MIGUEL ANGELO STEFFAN DE SOUZA,FM250 VAMPIRE,ULAC,PISTAO,MONOMOTOR,473.0,473.0,2.0,2011.0,BRASIL,BRASIL,ULTRALEVE,***,FAZENDA NOSSA SENHORA DA CONCEICAO,TANCREDO DE ALMEIDA NEVES,POUSO,EXPERIMENTAL,SUBSTANCIAL,0.0,86956,86956,86956,86956,ACIDENTE,-22.93777777777,-48.46805555555,BOTUCATU,SP,BRASIL,SDBK,04/04/2025,18:15:00,SIM,ATIVA,A-053/CENIPA/2025,NAO,,0,1,NAO
86954,PTOCO,***,AVIAO,PIPER AIRCRAFT,PA-28R-201,P28R,PISTAO,MONOMOTOR,1247.0,1247.0,4.0,1990.0,BRASIL,BRASIL,AVIAO,***,Aero Parque Tupa,SANTA MARIA,DECOLAGEM,PRIVADA,SUBSTANCIAL,0.0,86954,86954,86954,86954,ACIDENTE,-29.08555569444,-53.86555555555,TUPANCIRETA,RS,BRASIL,SIPJ,04/04/2025,17:20:00,SIM,ATIVA,A-052/CENIPA/2025,NAO,,0,1,NAO
86953,PTUYQ,***,AVIAO,EMBRAER,EMB-202A,IPAN,PISTAO,MONOMOTOR,1800.0,1800.0,1.0,2010.0,BRASIL,BRASIL,AVIAO,***,FORA DE AERODROMO,FORA DE AERODROMO,CRUZEIRO,AGRICOLA,SUBSTANCIAL,0.0,86953,86953,86953,86953,ACIDENTE,-9.596944444444,-35.96972222222,PILAR,AL,BRASIL,FAER,04/04/2025,09:05:00,SIM,ATIVA,A-051/CENIPA/2025,NAO,,0,1,NAO
86952,PTZPH,***,AVIAO,INPAER - Industria Paulista de Aeronautica,EXPLORER,ZZZZ,PISTAO,MONOMOTOR,1200.0,1200.0,,2014.0,BRASIL,BRASIL,AVIAO,***,AERODROMO DE PARAGOMINAS,MARECHAL CUNHA MACHADO,POUSO,EXPERIMENTAL,LEVE,0.0,86952,86952,86952,86952,INCIDENTE,-2.586944444444,-44.23611111111,SAO LUIS,MA,BRASIL,SBSL,03/04/2025,20:45:00,SIM,FINALIZADA,***,NAO,,0,1,NAO
86951,PRMYM,***,AVIAO,AIRBUS,A319-112,A319,JATO,BIMOTOR,75500.0,75500.0,154.0,2011.0,BRASIL,BRASIL,AVIAO,***,GOVERNADOR ANDRE FRANCO MONTORO,SERAFIN ENOSS BERTASO,POUSO,REGULAR,LEVE,0.0,86951,86951,86951,86951,INCIDENTE GRAVE,-27.13388888888,-52.65888888888,CHAPECO,SC,BRASIL,SBCH,31/03/2025,22:30:00,SIM,ATIVA,IG-048/CENIPA/2025,NAO,,0,1,SIM
86950,PRXMV,***,AVIAO,BOEING,737-8 MAX,B38M,,BIMOTOR,82644.0,82644.0,0.0,2021.0,BRASIL,BRASIL,AVIAO,***,SENADOR PETRONIO PORTELLA,GOVERNADOR ANDRE FRANCO MONTORO,POUSO,REGULAR,LEVE,0.0,86950,86950,86950,86950,INCIDENTE,-23.43555555555,-46.47305555555,GUARULHOS,SP,BRASIL,SBGR,05/04/2025,11:00:00,SIM,FINALIZADA,***,NAO,,0,1,NAO
86949,PSADB,***,AVIAO,EMBRAER,ERJ 190-400,***,,***,61200.0,61200.0,0.0,2025.0,BRASIL,BRASIL,AVIAO,***,ANTONIO CARLOS JOBIM / GALEAO,AFONSO PENA,TAXI,REGULAR,NENHUM,0.0,86949,86949,86949,86949,INCIDENTE,-22.81,-43.25055555555,RIO DE JANEIRO,RJ,BRASIL,SBGL,06/04/2025,12:30:00,SIM,FINALIZADA,***,NAO,,0,1,NAO
86948,PRBGB,***,HELICOPTERO,SIKORSKY AIRCRAFT,S-92A,S92,TURBOEIXO,BIMOTOR,12020.0,12020.0,21.0,2010.0,BRASIL,BRASIL,HELICOPTERO,***,Marica,FORA DE AERODROMO,SUBIDA,TAXI AEREO,NENHUM,0.0,86948,86948,86948,86948,INCIDENTE,-22.91805555555,-42.82888888888,MARICA,RJ,BRASIL,SBMI,03/04/2025,17:00:00,SIM,FINALIZADA,***,NAO,,0,1,NAO
86946,PTVHE,***,AVIAO,NEIVA INDUSTRIA AERONAUTICA,EMB-711ST,P28T,PISTAO,MONOMOTOR,1315.0,1315.0,4.0,1988.0,BRASIL,BRASIL,AVIAO,***,TEIXEIRA DE FREITAS,JOAO MONTEIRO,POUSO,PRIVADA,LEVE,0.0,86946,86946,86946,86946,INCIDENTE,-20.42305555555,-40.3325,VILA VELHA,ES,BRASIL,SIVU,04/04/2025,16:45:00,SIM,FINALIZADA,***,NAO,,0,1,NAO
86945,PRSDM,***,AVIAO,BOEING COMPANY,737-4Y0,B734,JATO,BIMOTOR,68038.0,68038.0,7.0,1990.0,BRASIL,BRASIL,AVIAO,***,GOVERNADOR ANDRE FRANCO MONTORO,PRESIDENTE JUSCELINO KUBITSCHEK,POUSO,***,NENHUM,0.0,86945,86945,86945,86945,INCIDENTE,-15.87111111111,-47.91861111111,BRASILIA,DF,BRASIL,SBBR,03/04/2025,07:30:00,SIM,FINALIZADA,***,NAO,,0,1,NAO
86941,PSMSA,***,***,ISRAEL AIRCRAFT,G100,ASTR,,BIMOTOR,11181.0,11181.0,,,BRASIL,BRASIL,***,***,SANTA GENOVEVA/GOIANIA,VAL DE CANS / JULIO CEZAR RIBEIRO,SUBIDA,PRIVADA,LEVE,0.0,86941,86941,86941,86941,INCIDENTE,-16.6325,-49.22111111111,GOIANIA,GO,BRASIL,SBGO,11/03/2025,21:30:00,SIM,FINALIZADA,***,NAO,,0,1,NAO
86940,PSIBF,***,***,AGUSTA,AW119MKII,A119,,MONOMOTOR,2850.0,2850.0,,,BRASIL,BRASIL,***,***,FORA DE AERODROMO,PRESIDENTE JOAO BATISTA FIGUEIREDO,INDETERMINADA,POLICIAL,LEVE,0.0,86940,86940,86940,86940,INCIDENTE,-11.87555555555,-55.51472222222,SINOP,MT,BRASIL,FAER,02/04/2025,16:50:00,SIM,FINALIZADA,***,NAO,,0,1,NAO
86939,PROHZ,***,HELICOPTERO,LEONARDO S.P.A,AW139,A139,***,***,7000.0,7000.0,,2014.0,BRASIL,BRASIL,HELICOPTERO,***,FORA DE AERODROMO,FORA DE AERODROMO,ESTACIONAMENTO,TAXI AEREO,NENHUM,0.0,86939,86939,86939,86939,INCIDENTE,,,GUARAPARI,ES,BRASIL,FAER,30/03/2025,13:30:00,SIM,FINALIZADA,***,NAO,,0,1,NAO
86938,PSAEE,***,AVIAO,EMBRAER,ERJ 190-400,E295,JATO,BIMOTOR,61200.0,61200.0,143.0,2020.0,BRASIL,BRASIL,AVIAO,***,ANTONIO CARLOS JOBIM / GALEAO,VIRACOPOS,TAXI,REGULAR,NENHUM,0.0,86938,86938,86938,86938,INCIDENTE,-22.81,-43.25055555555,RIO DE JANEIRO,RJ,BRASIL,SBGL,02/04/2025,12:00:00,SIM,FINALIZADA,***,NAO,,0,1,NAO
86937,PRTKK,***,AVIAO,ATR - GIE AVIONS DE TRANSPORT REGIONAL,ATR-72-212A,AT72,TURBOELICE,BIMOTOR,22800.0,22800.0,73.0,2012.0,BRASIL,BRASIL,AVIAO,***,VIRACOPOS,LEITE LOPES,TAXI,REGULAR,NENHUM,0.0,86937,86937,86937,86937,INCIDENTE,-23.00694444444,-47.13444444444,CAMPINAS,SP,BRASIL,SBKP,01/04/2025,14:15:00,SIM,FINALIZADA,***,NAO,,0,1,NAO
86936,PRAKO,***,AVIAO,ATR - GIE AVIONS DE TRANSPORT REGIONAL,ATR-72-212A (600),AT76,TURBOELICE,SEM TRACAO,22000.0,22000.0,0.0,2021.0,BRASIL,BRASIL,AVIAO,***,AFONSO PENA,SILVIO NAME JUNIOR,DECOLAGEM,REGULAR,NENHUM,0.0,86936,86936,86936,86936,INCIDENTE,-25.53166666666,-49.17611111111,CURITIBA,PR,BRASIL,SBCT,31/03/2025,16:15:00,SIM,FINALIZADA,***,NAO,,0,1,NAO
86935,PRSLU,***,AVIAO,BOEING,737-4Y0,B734,JATO,BIMOTOR,68038.0,68038.0,5.0,1992.0,BRASIL,BRASIL,AVIAO,***,GOVERNADOR ANDRE FRANCO MONTORO,PRESIDENTE JUSCELINO KUBITSCHEK,TAXI,***,NENHUM,0.0,86935,86935,86935,86935,INCIDENTE,-15.87111111111,-47.91861111111,BRASILIA,DF,BRASIL,SBBR,01/04/2025,07:45:00,SIM,FINALIZADA,***,NAO,,0,1,NAO
86934,PRAXO,***,AVIAO,EMBRAER,ERJ 190-200 IGW,E190,JATO,BIMOTOR,52290.0,52290.0,125.0,2012.0,BRASIL,BRASIL,AVIAO,***,AFONSO PENA,GOVERNADOR ANDRE FRANCO MONTORO,DECOLAGEM,REGULAR,NENHUM,0.0,86934,86934,86934,86934,INCIDENTE,-25.53166666666,-49.17611111111,CURITIBA,PR,BRASIL,SBCT,29/03/2025,20:30:00,SIM,FINALIZADA,***,NAO,,0,1,NAO
86933,PRGTE,***,AVIAO,BOEING,737-8EH,B738,JATO,BIMOTOR,79000.0,79000.0,194.0,2006.0,BRASIL,BRASIL,AVIAO,***,GOVERNADOR ALUIZIO ALVES,PRESIDENTE JUSCELINO KUBITSCHEK,CRUZEIRO,REGULAR,NENHUM,0.0,86933,86933,86933,86933,INCIDENTE,-19.62444444444,-43.97194444444,BRASILIA,DF,BRASIL,FAER,29/03/2025,13:15:00,SIM,FINALIZADA,***,NAO,,0,1,NAO
86931,PRAUQ,***,AVIAO,EMBRAER,ERJ 190-200 IGW,E190,JATO,BIMOTOR,52290.0,52290.0,125.0,2015.0,BRASIL,BRASIL,AVIAO,***,MARECHAL RONDON,POUSADA AMAZONIA FISHING LODGE,TAXI,REGULAR,NENHUM,0.0,86931,86931,86931,86931,INCIDENTE,-15.65,-56.1175,CUIABA,MT,BRASIL,SBCY,19/03/2025,18:00:00,SIM,FINALIZADA,***,NAO,,0,1,NAO
86929,PRSDV,***,AVIAO,BOEING,737-4Q8,B734,JATO,BIMOTOR,68038.0,68038.0,,,BRASIL,BRASIL,AVIAO,***,GOVERNADOR ANDRE FRANCO MONTORO,PRESIDENTE JUSCELINO KUBITSCHEK,ESTACIONAMENTO,***,NENHUM,0.0,86929,86929,86929,86929,INCIDENTE,-23.43555555555,-46.47305555555,GUARULHOS,SP,BRASIL,SBGR,19/03/2025,06:45:00,SIM,FINALIZADA,***,NAO,,0,1,NAO
86928,PRYRQ,***,AVIAO,AIRBUS,A320-251N,A320,JATO,BIMOTOR,77000.0,77000.0,170.0,0.0,BRASIL,BRASIL,AVIAO,***,VIRACOPOS,SALGADO FILHO,DECOLAGEM,REGULAR,NENHUM,0.0,86928,86928,86928,86928,INCIDENTE,-23.00694444444,-47.13444444444,CAMPINAS,SP,BRASIL,SBKP,11/03/2025,22:30:00,SIM,FINALIZADA,***,NAO,,0,1,NAO
86925,PRDNP,***,***,TEXTRON AVIATION,C90GTI,BE9L,,BIMOTOR,4756.0,4756.0,,,BRASIL,BRASIL,***,***,ESTANCIA SANTA MARIA,ADALBERTO MENDES DA SILVA,CRUZEIRO,PRIVADA,LEVE,0.0,86925,86925,86925,86925,INCIDENTE,,,CASCAVEL,PR,BRASIL,FAER,29/11/2024,00:15:00,SIM,FINALIZADA,***,NAO,,0,1,NAO
86924,PRMYM,***,AVIAO,AIRBUS,A319-112,A319,JATO,BIMOTOR,75500.0,75500.0,154.0,2011.0,BRASIL,BRASIL,AVIAO,***,DEPUTADO LUIS EDUARDO MAGALHAES,CONGONHAS,CRUZEIRO,REGULAR,NENHUM,0.0,86924,86924,86924,86924,INCIDENTE,-23.62611111111,-46.65638888888,GUARULHOS,SP,BRASIL,SBGR,22/02/2025,18:00:00,SIM,FINALIZADA,***,NAO,,0,1,NAO
86923,PPAIJ,***,HELICOPTERO,ROBINSON HELICOPTER,R44 II,R44,PISTAO,MONOMOTOR,1134.0,1134.0,4.0,2009.0,BRASIL,BRASIL,HELICOPTERO,***,FORA DE AERODROMO,ANAPOLIS,DECOLAGEM,PRIVADA,LEVE,0.0,86923,86923,86923,86923,INCIDENTE GRAVE,-15.83694444444,-48.94888888888,PIRENOPOLIS,GO,BRASIL,FAER,03/04/2025,17:30:00,SIM,FINALIZADA,***,NAO,,0,1,NAO
86922,PRTQB,***,AVIAO,AIRBUS,A320-214,A320,JATO,BIMOTOR,78000.0,78000.0,0.0,2011.0,BRASIL,BRASIL,AVIAO,***,SERAFIN ENOSS BERTASO,GOVERNADOR ANDRE FRANCO MONTORO,DECOLAGEM,REGULAR,LEVE,0.0,86922,86922,86922,86922,INCIDENTE,-27.13388888888,-52.65888888888,AGUAS DE CHAPECO,SC,BRASIL,SBCH,28/03/2025,12:45:00,SIM,FINALIZADA,***,NAO,,0,1,NAO
86921,PSAEE,***,AVIAO,EMBRAER,ERJ 190-400,E295,JATO,BIMOTOR,61200.0,61200.0,143.0,2020.0,BRASIL,BRASIL,AVIAO,***,ANTONIO CARLOS JOBIM / GALEAO,VIRACOPOS,TAXI,REGULAR,NENHUM,0.0,86921,86921,86921,86921,INCIDENTE,-22.81,-43.25055555555,RIO DE JANEIRO,RJ,BRASIL,SBGL,02/04/2025,21:00:00,SIM,FINALIZADA,***,NAO,,0,1,NAO
86920,PTXPI,***,AVIAO,AIRBUS,A321-211,A321,JATO,BIMOTOR,89000.0,89000.0,,,BRASIL,BRASIL,AVIAO,***,ANTONIO CARLOS JOBIM / GALEAO,GOVERNADOR ANDRE FRANCO MONTORO,TAXI,REGULAR,NENHUM,0.0,86920,86920,86920,86920,INCIDENTE,-22.81,-43.25055555555,RIO DE JANEIRO,RJ,BRASIL,SBGL,02/04/2025,15:45:00,SIM,FINALIZADA,***,NAO,,0,1,NAO
86918,PTVKB,***,AVIAO,EMBRAER,EMB-820C CARAJA,PAT4,TURBOELICE,BIMOTOR,3175.0,3175.0,10.0,1988.0,BRASIL,BRASIL,AVIAO,***,PREFEITO ORLANDO MARINHO,COARI,DECOLAGEM,***,NENHUM,0.0,86918,86918,86918,86918,INCIDENTE,-3.380277777777,-64.72527777777,TEFE,AM,BRASIL,SBTF,31/03/2025,13:30:00,SIM,FINALIZADA,***,NAO,,0,1,NAO
86917,PPPSO,***,AVIAO,PIPER AIRCRAFT,PA-32-301FT,PA32,PISTAO,MONOMOTOR,1633.0,1633.0,6.0,2005.0,BRASIL,BRASIL,AVIAO,***,PRIMAVERA DO LESTE,AGROPASTORIL BOM PASTOR,CRUZEIRO,PRIVADA,DESTRUIDA,1.0,86917,86917,86917,86917,ACIDENTE,-16.48388888888,-54.77027777777,RONDONOPOLIS,MT,BRASIL,FAER,02/04/2025,11:30:00,NAO,ATIVA,A-050/CENIPA/2025,NAO,,0,1,NAO
86916,PRXMH,***,AVIAO,BOEING COMPANY,B737-8MAX,B38M,,BIMOTOR,82190.0,82190.0,0.0,2022.0,BRASIL,BRASIL,AVIAO,,SANTA GENOVEVA/GOIANIA,ANTONIO CARLOS JOBIM / GALEAO,DECOLAGEM,REGULAR,NENHUM,0.0,86916,86916,86916,86916,INCIDENTE,,,GOIANIA,GO,BRASIL,SBGO,31/03/2025,21:00:00,SIM,FINALIZADA,***,NAO,,0,2,NAO
86916,PTLSH,***,AVIAO,BEECH AIRCRAFT,F90,BE9T,TURBOELICE,BIMOTOR,4967.0,4967.0,8.0,1981.0,BRASIL,BRASIL,AVIAO,,SANTA GENOVEVA/GOIANIA,SANTA GENOVEVA/GOIANIA,DECOLAGEM,***,NENHUM,0.0,86916,86916,86916,86916,INCIDENTE,,,GOIANIA,GO,BRASIL,SBGO,31/03/2025,21:00:00,SIM,FINALIZADA,***,NAO,,0,2,NAO
86914,PRAXU,***,AVIAO,EMBRAER,ERJ 190-200 IGW,E190,TURBOEIXO,BIMOTOR,52290.0,52290.0,125.0,2013.0,BRASIL,BRASIL,AVIAO,***,GOVERNADOR ANDRE FRANCO MONTORO,SANTOS DUMONT,SUBIDA,REGULAR,NENHUM,0.0,86914,86914,86914,86914,INCIDENTE,-23.43555555555,-46.47305555555,GUARULHOS,SP,BRASIL,SBGR,11/03/2025,11:45:00,SIM,FINALIZADA,***,NAO,,0,1,NAO
86913,PRVBL,***,AVIAO,BOEING,737-8EH,B738,JATO,BIMOTOR,79000.0,79000.0,197.0,2007.0,BRASIL,BRASIL,AVIAO,***,GOVERNADOR ANDRE FRANCO MONTORO,CATARATAS,POUSO,REGULAR,NENHUM,0.0,86913,86913,86913,86913,INCIDENTE,-25.60027777777,-54.485,FOZ DO IGUACU,PR,BRASIL,SBFI,16/03/2025,17:15:00,SIM,FINALIZADA,***,NAO,,0,1,NAO
86912,PREPE,***,HELICOPTERO,HELIBRAS,AS 350 B2,AS50,TURBOEIXO,MONOMOTOR,2250.0,2250.0,6.0,0.0,BRASIL,BRASIL,HELICOPTERO,***,FORA DE AERODROMO,FORA DE AERODROMO,POUSO,POLICIAL,SUBSTANCIAL,0.0,86912,86912,86912,86912,ACIDENTE,-8.642777777777,-39.695,SANTA MARIA DA BOA VISTA,PE,BRASIL,FAER,28/03/2025,19:35:00,SIM,ATIVA,A-047/CENIPA/2025,NAO,,0,1,NAO
86911,PRRUY,***,AVIAO,CESSNA AIRCRAFT,A188B,C188,PISTAO,MONOMOTOR,1905.0,1905.0,1.0,1975.0,BRASIL,BRASIL,AVIAO,***,FORA DE AERODROMO,FORA DE AERODROMO,MANOBRA,AGRICOLA,SUBSTANCIAL,0.0,86911,86911,86911,86911,ACIDENTE,-18.81083333333,-49.00666666666,CANAPOLIS,MG,BRASIL,FAER,21/03/2025,20:00:00,SIM,ATIVA,A-045/CENIPA/2025,NAO,,0,1,NAO
86910,PRUTA,***,HELICOPTERO,EUROCOPTER FRANCE,AS 350 BA,AS50,TURBOEIXO,MONOMOTOR,2100.0,2100.0,6.0,1995.0,BRASIL,BRASIL,HELICOPTERO,***,MALBORO,AUARIS,APROXIMACAO FINAL,TAXI AEREO,LEVE,0.0,86910,86910,86910,86910,INCIDENTE,2.7013888888889,-60.84916666666,BOA VISTA,RR,BRASIL,SD6X,01/04/2025,15:00:00,SIM,FINALIZADA,***,NAO,,0,1,NAO
86909,PTWRU,***,ANFIBIO,CESSNA AIRCRAFT,208 ANFIBIO,C208,TURBOELICE,MONOMOTOR,3629.0,3629.0,10.0,1998.0,BRASIL,BRASIL,ANFIBIO,***,FONTE BOA,PREFEITO ORLANDO MARINHO,TAXI,TAXI AEREO,NENHUM,0.0,86909,86909,86909,86909,INCIDENTE,-3.380277777777,-64.72527777777,TEFE,AM,BRASIL,SBTF,31/03/2025,13:03:00,SIM,FINALIZADA,***,NAO,,0,1,NAO
86908,PRSLU,***,AVIAO,BOEING,737-4Y0,B734,JATO,BIMOTOR,68038.0,68038.0,5.0,1992.0,BRASIL,BRASIL,AVIAO,***,EDUARDO GOMES,PRESIDENTE JUSCELINO KUBITSCHEK,POUSO,***,NENHUM,0.0,86908,86908,86908,86908,INCIDENTE,-15.87111111111,-47.91861111111,BRASILIA,DF,BRASIL,SBBR,24/02/2025,22:00:00,SIM,FINALIZADA,***,NAO,,0,1,NAO
86907,PRGUC,***,AVIAO,BOEING,737-8EH,B738,JATO,BIMOTOR,70533.0,70533.0,193.0,2010.0,BRASIL,BRASIL,AVIAO,***,JORGE NEWBERY AIRFIELD,GOVERNADOR ANDRE FRANCO MONTORO,POUSO,REGULAR,NENHUM,0.0,86907,86907,86907,86907,INCIDENTE,-23.43555555555,-46.47305555555,GUARULHOS,SP,BRASIL,SBGR,31/03/2025,12:30:00,SIM,FINALIZADA,***,NAO,,0,1,NAO
86906,PRGGM,***,AVIAO,BOEING,737-8EH,B738,JATO,BIMOTOR,70533.0,70533.0,197.0,2009.0,BRASIL,BRASIL,AVIAO,***,PROFESSOR ERIBERTO MANOEL REINO,CONGONHAS,DECOLAGEM,REGULAR,NENHUM,0.0,86906,86906,86906,86906,INCIDENTE,-20.81722222222,-49.40694444444,SAO JOSE DO RIO PRETO,SP,BRASIL,SBSR,28/03/2025,19:30:00,SIM,FINALIZADA,***,NAO,,0,1,NAO
86905,PTMUC,***,AVIAO,BOEING COMPANY,777-32WER,B77W,JATO,BIMOTOR,346544.0,346544.0,382.0,2008.0,BRASIL,BRASIL,AVIAO,***,MALPENSA AIRPORT,GOVERNADOR ANDRE FRANCO MONTORO,POUSO,REGULAR,NENHUM,0.0,86905,86905,86905,86905,INCIDENTE,-23.43555555555,-46.47305555555,GUARULHOS,SP,BRASIL,SBGR,19/02/2025,14:30:00,SIM,FINALIZADA,***,NAO,,0,1,NAO
86904,PRAYF,***,AVIAO,EMBRAER,ERJ 190-200 IGW,E190,JATO,BIMOTOR,52290.0,52290.0,125.0,2010.0,BRASIL,BRASIL,AVIAO,***,SALGADO FILHO,AFONSO PENA,TAXI,REGULAR,NENHUM,0.0,86904,86904,86904,86904,INCIDENTE,-29.99472222222,-51.17111111111,PORTO ALEGRE,RS,BRASIL,SBPA,30/03/2025,00:15:00,SIM,FINALIZADA,***,NAO,,0,1,NAO
86903,PRSDV,***,AVIAO,BOEING,737-4Q8,B734,JATO,BIMOTOR,68038.0,68038.0,,,BRASIL,BRASIL,AVIAO,***,GOVERNADOR ANDRE FRANCO MONTORO,PRESIDENTE JUSCELINO KUBITSCHEK,CRUZEIRO,***,NENHUM,0.0,86903,86903,86903,86903,INCIDENTE,-15.87111111111,-47.91861111111,BRASILIA,DF,BRASIL,FAER,29/03/2025,07:30:00,SIM,FINALIZADA,***,NAO,,0,1,NAO
86902,PRXBF,***,AVIAO,AIRBUS S.A.S.,A320-271N,A20N,JATO,BIMOTOR,79000.0,79000.0,182.0,2019.0,BRASIL,BRASIL,AVIAO,***,AFONSO PENA,CONGONHAS,DECOLAGEM,REGULAR,LEVE,0.0,86902,86902,86902,86902,INCIDENTE,-25.53166666666,-49.17611111111,CURITIBA,PR,BRASIL,SBCT,31/03/2025,12:15:00,SIM,FINALIZADA,***,NAO,,0,1,NAO
86901,PRSLH,***,***,BOEING COMPANY,737-86N,B738,,BIMOTOR,79000.0,79000.0,,,BRASIL,BRASIL,***,***,TANCREDO NEVES,PINTO MARTINS,POUSO,***,NENHUM,0.0,86901,86901,86901,86901,INCIDENTE,-3.775833333333,-38.53222222222,FORTALEZA,CE,BRASIL,SBFZ,22/03/2025,08:00:00,SIM,FINALIZADA,***,NAO,,0,1,NAO
86898,PRSLU,***,AVIAO,BOEING,737-4Y0,B734,JATO,BIMOTOR,68038.0,68038.0,5.0,1992.0,BRASIL,BRASIL,AVIAO,***,GOVERNADOR ANDRE FRANCO MONTORO,DEPUTADO LUIS EDUARDO MAGALHAES,CRUZEIRO,***,NENHUM,0.0,86898,86898,86898,86898,INCIDENTE,-12.90861111111,-38.3225,SALVADOR,BA,BRASIL,FAER,26/03/2025,14:00:00,SIM,FINALIZADA,***,NAO,,0,1,NAO
86897,PTMXN,***,AVIAO,AIRBUS,A321-231,A321,JATO,BIMOTOR,89000.0,89000.0,0.0,2014.0,BRASIL,BRASIL,AVIAO,***,GOVERNADOR ANDRE FRANCO MONTORO,EURICO DE AGUIAR SALLES,POUSO,REGULAR,NENHUM,0.0,86897,86897,86897,86897,INCIDENTE,-20.25805555555,-40.28638888888,VITORIA,ES,BRASIL,SBVT,24/02/2025,14:45:00,SIM,FINALIZADA,***,NAO,,0,1,NAO
86896,PPEPS,***,AVIAO,BEECH AIRCRAFT,C90A,BE9L,TURBOELICE,BIMOTOR,4581.0,4581.0,8.0,1996.0,BRASIL,BRASIL,AVIAO,***,CESCONETTO,PORTO SEGURO,POUSO,POLICIAL,NENHUM,0.0,86896,86896,86896,86896,INCIDENTE,-16.43805555555,-39.07777777777,PORTO SEGURO,BA,BRASIL,SBPS,31/03/2025,14:30:00,SIM,FINALIZADA,***,NAO,,0,1,NAO
86895,PPGGV,***,AVIAO,AERO BOERO,AB-115,AB11,PISTAO,MONOMOTOR,770.0,770.0,2.0,1992.0,BRASIL,BRASIL,AVIAO,***,DOMINGOS PIGNATARI,AERODROMO DE ITURAMA,SUBIDA,INSTRUCAO,LEVE,0.0,86895,86895,86895,86895,INCIDENTE GRAVE,-20.45722222222,-50.0025,VOTUPORANGA,SP,BRASIL,SDVG,30/03/2025,12:30:00,SIM,FINALIZADA,***,NAO,,0,1,NAO
86894,PTIQW,***,AVIAO,BEECH AIRCRAFT,V35B,BE35,PISTAO,MONOMOTOR,1542.0,1542.0,5.0,1973.0,BRASIL,BRASIL,AVIAO,***,CATALAO,ARAGUAINA,POUSO,PRIVADA,LEVE,0.0,86894,86894,86894,86894,INCIDENTE GRAVE,-7.228333333333,-48.24083333333,ARAGUAINA,TO,BRASIL,SWGN,28/03/2025,13:57:00,SIM,FINALIZADA,***,NAO,,0,1,NAO
86893,PTUUL,***,AVIAO,NEIVA INDUSTRIA AERONAUTICA,EMB-202A,IPAN,PISTAO,MONOMOTOR,1800.0,1800.0,1.0,2007.0,BRASIL,BRASIL,AVIAO,***,FORA DE AERODROMO,FORA DE AERODROMO,MANOBRA,AGRICOLA,SUBSTANCIAL,1.0,86893,86893,86893,86893,ACIDENTE,-20.18055555555,-48.26388888888,MIGUELOPOLIS,SP,BRASIL,FAER,28/03/2025,09:30:00,SIM,ATIVA,A-046/CENIPA/2025,NAO,,0,1,NAO
86891,PSCLS,***,***,CIRRUS DESIGN,SR22,SR22,,MONOMOTOR,1633.0,1633.0,,,BRASIL,BRASIL,***,***,LEITE LOPES,HELMUTH BAUNGARTEM,SUBIDA,PRIVADA,NENHUM,0.0,86891,86891,86891,86891,INCIDENTE,-21.13638888888,-47.77666666666,RIBEIRAO PRETO,SP,BRASIL,SBRP,26/03/2025,17:00:00,SIM,FINALIZADA,***,NAO,,0,1,NAO
86890,PTMXH,***,AVIAO,AIRBUS,A321-231,A321,JATO,BIMOTOR,89000.0,89000.0,232.0,2011.0,BRASIL,BRASIL,AVIAO,***,ANTONIO CARLOS JOBIM / GALEAO,PINTO MARTINS,DECOLAGEM,REGULAR,NENHUM,0.0,86890,86890,86890,86890,INCIDENTE,-22.81,-43.25055555555,RIO DE JANEIRO,RJ,BRASIL,SBGL,29/03/2025,13:15:00,SIM,FINALIZADA,***,NAO,,0,1,NAO
86889,PRSLH,***,***,BOEING COMPANY,737-86N,B738,,BIMOTOR,79000.0,79000.0,,,BRASIL,BRASIL,***,***,TANCREDO NEVES,PINTO MARTINS,CRUZEIRO,***,NENHUM,0.0,86889,86889,86889,86889,INCIDENTE,-3.775833333333,-38.53222222222,FORTALEZA,CE,BRASIL,FAER,22/03/2025,08:00:00,SIM,FINALIZADA,***,NAO,,0,1,NAO
86888,PRSDW,***,AVIAO,BOEING,B737-31L,B733,***,***,61235.0,61235.0,,,BRASIL,BRASIL,AVIAO,***,AFONSO PENA,DEPUTADO LUIS EDUARDO MAGALHAES,CRUZEIRO,***,NENHUM,0.0,86888,86888,86888,86888,INCIDENTE,-12.90861111111,-38.3225,SALVADOR,BA,BRASIL,FAER,27/03/2025,22:30:00,SIM,FINALIZADA,***,NAO,,0,1,NAO
86887,PSAES,***,AVIAO,EMBRAER,ERJ 190-400,E295,,***,61200.0,61200.0,0.0,2023.0,BRASIL,BRASIL,AVIAO,***,VIRACOPOS,SENADOR NILO COELHO,DECOLAGEM,REGULAR,NENHUM,0.0,86887,86887,86887,86887,INCIDENTE,-23.00694444444,-47.13444444444,CAMPINAS,SP,BRASIL,SBKP,23/03/2025,02:30:00,SIM,FINALIZADA,***,NAO,,0,1,NAO
86886,PRAXN,***,AVIAO,EMBRAER,ERJ 190-200 IGW,E190,JATO,BIMOTOR,52290.0,52290.0,125.0,2012.0,BRASIL,BRASIL,AVIAO,***,CONGONHAS,SANTOS DUMONT,DECOLAGEM,REGULAR,NENHUM,0.0,86886,86886,86886,86886,INCIDENTE,-23.62611111111,-46.65638888888,SAO PAULO,SP,BRASIL,SBSP,24/03/2025,18:15:00,SIM,FINALIZADA,***,NAO,,0,1,NAO
86885,PRGGQ,***,AVIAO,BOEING,737-8EH,B738,JATO,BIMOTOR,70533.0,70533.0,193.0,2009.0,BRASIL,BRASIL,AVIAO,***,GOVERNADOR ANDRE FRANCO MONTORO,TANCREDO NEVES,DECOLAGEM,REGULAR,NENHUM,0.0,86885,86885,86885,86885,INCIDENTE,-23.43555555555,-46.47305555555,GUARULHOS,SP,BRASIL,SBGR,26/03/2025,18:30:00,SIM,FINALIZADA,***,NAO,,0,1,NAO
86882,PRSDM,***,AVIAO,BOEING COMPANY,737-4Y0,B734,JATO,BIMOTOR,68038.0,68038.0,7.0,1990.0,BRASIL,BRASIL,AVIAO,***,DEPUTADO LUIS EDUARDO MAGALHAES,TANCREDO NEVES,DECOLAGEM,***,NENHUM,0.0,86882,86882,86882,86882,INCIDENTE,-12.90861111111,-38.3225,SALVADOR,BA,BRASIL,SBSV,22/03/2025,03:45:00,SIM,FINALIZADA,***,NAO,,0,1,NAO
86881,PRGXT,***,AVIAO,BOEING COMPANY,737-8EH,B738,JATO,BIMOTOR,70533.0,70533.0,196.0,2014.0,BRASIL,BRASIL,AVIAO,***,CONGONHAS,DEPUTADO LUIS EDUARDO MAGALHAES,POUSO,REGULAR,NENHUM,0.0,86881,86881,86881,86881,INCIDENTE,-12.90861111111,-38.3225,SALVADOR,BA,BRASIL,SBSV,15/03/2025,17:15:00,SIM,FINALIZADA,***,NAO,,0,1,NAO
86880,PSGFO,***,***,AIR TRACTOR,AT-502A,AT5T,,MONOMOTOR,3629.0,3629.0,,,BRASIL,BRASIL,***,***,FAZENDA SAO MATEUS,FAZENDA SAO MATEUS,DECOLAGEM,AGRICOLA,SUBSTANCIAL,0.0,86880,86880,86880,86880,ACIDENTE,-12.255,-57.2575,NOVA MARINGA,MT,BRASIL,SD2D,19/03/2025,18:30:00,SIM,ATIVA,A-043/CENIPA/2025,NAO,,0,1,SIM
86879,LVIVO,***,AVIAO,AIRBUS,A320-232,A322,***,SEM TRACAO,79800.0,79800.0,0.0,0.0,ARGENTINA,ARGENTINA,AVIAO,***,ANTONIO CARLOS JOBIM / GALEAO,AEROPUERTO INTERNACIONAL MINISTRO PISTARINI,DECOLAGEM,REGULAR,LEVE,0.0,86879,86879,86879,86879,INCIDENTE,-22.81,-43.25055555555,RIO DE JANEIRO,RJ,BRASIL,SBGL,24/03/2025,12:30:00,SIM,FINALIZADA,***,NAO,,0,1,NAO
86878,PRGTC,***,AVIAO,BOEING,737-8EH,B738,JATO,BIMOTOR,79000.0,79000.0,194.0,2006.0,BRASIL,BRASIL,AVIAO,***,PRESIDENTE JUSCELINO KUBITSCHEK,ANTONIO CARLOS JOBIM / GALEAO,SUBIDA,REGULAR,LEVE,0.0,86878,86878,86878,86878,INCIDENTE,-15.87111111111,-47.91861111111,BRASILIA,DF,BRASIL,SBBR,24/03/2025,14:00:00,SIM,FINALIZADA,***,NAO,,0,1,NAO
86877,PRSDM,***,AVIAO,BOEING COMPANY,737-4Y0,B734,JATO,BIMOTOR,68038.0,68038.0,7.0,1990.0,BRASIL,BRASIL,AVIAO,***,DEPUTADO LUIS EDUARDO MAGALHAES,TANCREDO NEVES,ESTACIONAMENTO,***,NENHUM,0.0,86877,86877,86877,86877,INCIDENTE,-19.62444444444,-43.97194444444,CONFINS,MG,BRASIL,SBCF,20/03/2025,03:45:00,SIM,FINALIZADA,***,NAO,,0,1,NAO
86876,PTMUF,***,AVIAO,BOEING,777-32WER,B77W,JATO,BIMOTOR,346544.0,346544.0,384.0,2012.0,BRASIL,BRASIL,AVIAO,***,GOVERNADOR ANDRE FRANCO MONTORO,JORGE CHAVEZ INTERNATIONAL AIRPORT,CRUZEIRO,REGULAR,NENHUM,0.0,86876,86876,86876,86876,INCIDENTE,-23.43555555555,-46.47305555555,GUARULHOS,SP,BRASIL,SBGR,19/03/2025,11:15:00,SIM,FINALIZADA,***,NAO,,0,1,NAO
86875,PRMHP,***,AVIAO,AIRBUS,A320-214,A320,JATO,BIMOTOR,77000.0,77000.0,184.0,2007.0,BRASIL,BRASIL,AVIAO,***,CONGONHAS,PRESIDENTE JUSCELINO KUBITSCHEK,POUSO,REGULAR,LEVE,0.0,86875,86875,86875,86875,INCIDENTE,-15.87111111111,-47.91861111111,BRASILIA,DF,BRASIL,SBBR,17/03/2025,00:07:00,SIM,FINALIZADA,***,NAO,,0,1,NAO
86874,PRSDL,***,AVIAO,BOEING,737-3S3,B733,JATO,BIMOTOR,63276.0,63276.0,6.0,1988.0,BRASIL,BRASIL,AVIAO,***,EDUARDO GOMES,PRESIDENTE JUSCELINO KUBITSCHEK,CRUZEIRO,***,NENHUM,0.0,86874,86874,86874,86874,INCIDENTE,-15.87111111111,-47.91861111111,BRASILIA,DF,BRASIL,FAER,14/03/2025,01:30:00,SIM,FINALIZADA,***,NAO,,0,1,NAO
86873,PRSDM,***,AVIAO,BOEING COMPANY,737-4Y0,B734,JATO,BIMOTOR,68038.0,68038.0,7.0,1990.0,BRASIL,BRASIL,AVIAO,***,ANTONIO CARLOS JOBIM / GALEAO,DEPUTADO LUIS EDUARDO MAGALHAES,APROXIMACAO FINAL,***,NENHUM,0.0,86873,86873,86873,86873,INCIDENTE,-12.90861111111,-38.3225,SALVADOR,BA,BRASIL,SBSV,12/03/2025,09:30:00,SIM,FINALIZADA,***,NAO,,0,1,NAO
86872,PSTLA,***,AVIAO,BOEING,737-45D,B734,JATO,BIMOTOR,65090.0,65090.0,0.0,1997.0,BRASIL,BRASIL,AVIAO,***,GOVERNADOR ANDRE FRANCO MONTORO,AFONSO PENA,POUSO,REGULAR,NENHUM,0.0,86872,86872,86872,86872,INCIDENTE,-25.53166666666,-49.17611111111,CURITIBA,PR,BRASIL,SBCT,19/11/2024,08:30:00,SIM,FINALIZADA,***,NAO,,0,1,NAO
86871,PRGXB,***,AVIAO,BOEING,737-8EH,B738,JATO,BIMOTOR,70533.0,70533.0,199.0,2013.0,BRASIL,BRASIL,AVIAO,***,ANTONIO CARLOS JOBIM / GALEAO,GOVERNADOR ALUIZIO ALVES,TAXI,REGULAR,NENHUM,0.0,86871,86871,86871,86871,INCIDENTE,-22.81,-43.25055555555,RIO DE JANEIRO,RJ,BRASIL,SBGL,12/03/2025,10:45:00,SIM,FINALIZADA,***,NAO,,0,1,NAO
86870,PRYSH,***,AVIAO,AIRBUS,A320-251N,A20N,JATO,BIMOTOR,77000.0,77000.0,0.0,2021.0,BRASIL,BRASIL,AVIAO,***,GUARARAPES - GILBERTO FREYRE,CONGONHAS,CRUZEIRO,REGULAR,NENHUM,0.0,86870,86870,86870,86870,INCIDENTE,-12.90861111111,-38.3225,SALVADOR,BA,BRASIL,FAER,28/02/2025,13:00:00,SIM,FINALIZADA,***,NAO,,0,1,NAO
86869,PSAEZ,***,AVIAO,EMBRAER,ERJ 190-400,E295,,***,61200.0,61200.0,0.0,2024.0,BRASIL,BRASIL,AVIAO,***,AFONSO PENA,ANTONIO CARLOS JOBIM / GALEAO,DESCIDA,REGULAR,NENHUM,0.0,86869,86869,86869,86869,INCIDENTE,-22.81,-43.25055555555,RIO DE JANEIRO,RJ,BRASIL,SBGL,25/02/2025,14:15:00,SIM,FINALIZADA,***,NAO,,0,1,NAO
86868,PRAXK,***,AVIAO,EMBRAER,ERJ 190-200 IGW,E190,JATO,BIMOTOR,52290.0,52290.0,125.0,2012.0,BRASIL,BRASIL,AVIAO,***,TANCREDO NEVES,ATLAS BRASIL CANTANHEDE,CRUZEIRO,REGULAR,NENHUM,0.0,86868,86868,86868,86868,INCIDENTE,-8.126388888888,-34.92277777777,RECIFE,PE,BRASIL,FAER,20/02/2025,23:00:00,SIM,FINALIZADA,***,NAO,,0,1,NAO
86867,PRSLH,***,***,BOEING COMPANY,737-86N,B738,,BIMOTOR,79000.0,79000.0,,,BRASIL,BRASIL,***,***,TANCREDO NEVES,PINTO MARTINS,APROXIMACAO FINAL,***,NENHUM,0.0,86867,86867,86867,86867,INCIDENTE,-3.775833333333,-38.53222222222,FORTALEZA,CE,BRASIL,SBFZ,21/02/2025,13:00:00,SIM,FINALIZADA,***,NAO,,0,1,NAO
86866,PPHPB,***,AVIAO,NEIVA INDUSTRIA AERONAUTICA,56-C-1,PAUL,PISTAO,MONOMOTOR,660.0,660.0,2.0,1963.0,BRASIL,BRASIL,AVIAO,***,COMANDANTE ANTONIO AMILTON BERALDO,COMANDANTE ANTONIO AMILTON BERALDO,DECOLAGEM,INSTRUCAO,SUBSTANCIAL,0.0,86866,86866,86866,86866,ACIDENTE,-25.18444444444,-50.14388888888,PONTA GROSSA,PR,BRASIL,SBPG,19/03/2025,13:00:00,SIM,ATIVA,A-042/CENIPA/2025,NAO,,0,1,NAO
86865,PRBGT,***,HELICOPTERO,SIKORSKY,S-92A,S92,TURBOEIXO,BIMOTOR,12020.0,12020.0,21.0,2013.0,BRASIL,BRASIL,HELICOPTERO,***,JACAREPAGUA,FORA DE AERODROMO,APROXIMACAO FINAL,TAXI AEREO,NENHUM,0.0,86865,86865,86865,86865,INCIDENTE,,,SAO PAULO,SP,BRASIL,FAER,20/03/2025,19:00:00,SIM,FINALIZADA,***,NAO,,0,1,NAO
86863,PTVVM,***,AVIAO,NEIVA INDUSTRIA AERONAUTICA,EMB-202A,IPAN,PISTAO,MONOMOTOR,1800.0,1800.0,1.0,2012.0,BRASIL,BRASIL,AVIAO,***,FORA DE AERODROMO,FORA DE AERODROMO,MANOBRA,AGRICOLA,LEVE,0.0,86863,86863,86863,86863,INCIDENTE GRAVE,-21.40277777777,-51.81805555555,PANORAMA,SP,BRASIL,FAER,20/03/2025,20:30:00,SIM,FINALIZADA,***,NAO,,0,1,NAO
86862,PRGGQ,***,AVIAO,BOEING,737-8EH,B738,JATO,BIMOTOR,70533.0,70533.0,193.0,2009.0,BRASIL,BRASIL,AVIAO,***,GOVERNADOR ANDRE FRANCO MONTORO,TANCREDO NEVES,POUSO,REGULAR,NENHUM,0.0,86862,86862,86862,86862,INCIDENTE,-19.62444444444,-43.97194444444,CONFINS,MG,BRASIL,SBCF,25/03/2025,02:15:00,SIM,FINALIZADA,***,NAO,,0,1,NAO
86861,PRGZW,***,AVIAO,BOEING,737-86N,B738,,BIMOTOR,79015.0,79015.0,0.0,2006.0,BRASIL,BRASIL,AVIAO,***,ANTONIO CARLOS JOBIM / GALEAO,PRESIDENTE CASTRO PINTO,DECOLAGEM,REGULAR,LEVE,0.0,86861,86861,86861,86861,INCIDENTE,-22.81,-43.25055555555,RIO DE JANEIRO,RJ,BRASIL,SBGL,24/03/2025,17:45:00,SIM,FINALIZADA,***,NAO,,0,1,NAO
86860,PRSLU,***,AVIAO,BOEING,737-4Y0,B734,JATO,BIMOTOR,68038.0,68038.0,5.0,1992.0,BRASIL,BRASIL,AVIAO,***,GOVERNADOR ANDRE FRANCO MONTORO,DEPUTADO LUIS EDUARDO MAGALHAES,ESTACIONAMENTO,***,NENHUM,0.0,86860,86860,86860,86860,INCIDENTE,-23.43555555555,-46.47305555555,GUARULHOS,SP,BRASIL,SBGR,22/03/2025,07:15:00,SIM,FINALIZADA,***,NAO,,0,1,NAO
86859,PRSDU,***,AVIAO,BOEING,737-4B6,B734,JATO,BIMOTOR,68038.0,68038.0,0.0,0.0,BRASIL,BRASIL,AVIAO,***,GOVERNADOR ANDRE FRANCO MONTORO,PRESIDENTE JUSCELINO KUBITSCHEK,APROXIMACAO FINAL,***,NENHUM,0.0,86859,86859,86859,86859,INCIDENTE,-15.87111111111,-47.91861111111,BRASILIA,DF,BRASIL,SBBR,21/03/2025,10:45:00,SIM,FINALIZADA,***,NAO,,0,1,NAO
86858,PPWSA,***,AVIAO,BOEING,B737-4Q8,B734,***,SEM TRACAO,68038.0,68038.0,0.0,1994.0,BRASIL,BRASIL,AVIAO,***,PRESIDENTE JUSCELINO KUBITSCHEK,GOVERNADOR ANDRE FRANCO MONTORO,CRUZEIRO,***,NENHUM,0.0,86858,86858,86858,86858,INCIDENTE,-23.43555555555,-46.47305555555,SAO PAULO,SP,BRASIL,FAER,21/03/2025,03:45:00,SIM,FINALIZADA,***,NAO,,0,1,NAO
86857,PRTYT,***,AVIAO,AIRBUS,A320-214,A320,JATO,BIMOTOR,78000.0,78000.0,0.0,2015.0,BRASIL,BRASIL,AVIAO,***,CONGONHAS,SALGADO FILHO,CRUZEIRO,REGULAR,NENHUM,0.0,86857,86857,86857,86857,INCIDENTE,-29.99472222222,-51.17111111111,PORTO ALEGRE,RS,BRASIL,FAER,20/03/2025,10:45:00,SIM,FINALIZADA,***,NAO,,0,1,NAO
86856,PRBGY,***,HELICOPTERO,AGUSTA,AW139,A139,TURBOEIXO,BIMOTOR,6400.0,6400.0,14.0,0.0,BRASIL,BRASIL,HELICOPTERO,***,MACAE/RIO DE JANEIRO - JOAQUIM DE AZEVEDO MANCEBO,FORA DE AERODROMO,SUBIDA,TAXI AEREO,NENHUM,0.0,86856,86856,86856,86856,INCIDENTE,-22.34277777777,-41.76388888888,MACAE,RJ,BRASIL,SBME,19/03/2025,18:30:00,SIM,FINALIZADA,***,NAO,,0,1,NAO
86855,PSGPI,***,AVIAO,BOEING,B737-800,B738,,BIMOTOR,82644.0,82644.0,0.0,0.0,BRASIL,BRASIL,AVIAO,***,ANTONIO CARLOS JOBIM / GALEAO,AEROPORTO INTERNACIONAL DE CARRASCO - GENERAL CESARIO L BERISSO,DECOLAGEM,REGULAR,LEVE,0.0,86855,86855,86855,86855,INCIDENTE,-22.81,-43.25055555555,RIO DE JANEIRO,RJ,BRASIL,SBGL,11/03/2025,11:45:00,SIM,FINALIZADA,***,NAO,,0,1,NAO
86854,PRTYQ,***,AVIAO,AIRBUS,A320-214,A320,***,SEM TRACAO,78000.0,78000.0,0.0,2015.0,BRASIL,BRASIL,AVIAO,***,EURICO DE AGUIAR SALLES,GOVERNADOR ANDRE FRANCO MONTORO,DECOLAGEM,REGULAR,LEVE,0.0,86854,86854,86854,86854,INCIDENTE,-20.25805555555,-40.28638888888,VITORIA,ES,BRASIL,SBVT,25/03/2025,14:30:00,SIM,FINALIZADA,***,NAO,,0,1,NAO
86853,PSPMU,***,***,EMBRAER,EMB-203,IPAN,,MONOMOTOR,1900.0,1900.0,,,BRASIL,BRASIL,***,***,Fazenda Primavera,Fazenda Primavera,ESTACIONAMENTO,AGRICOLA,LEVE,0.0,86853,86853,86853,86853,INCIDENTE,-13.45944444444,-61.23388902777,PIMENTEIRAS DO OESTE,RO,BRASIL,SWPF,19/03/2025,18:45:00,SIM,FINALIZADA,***,NAO,,0,1,NAO
86852,PRYRW,***,AVIAO,AIRBUS,A320-253N,A20N,***,***,77000.0,77000.0,,2018.0,BRASIL,BRASIL,AVIAO,***,TANCREDO NEVES,VIRACOPOS,APROXIMACAO FINAL,REGULAR,LEVE,0.0,86852,86852,86852,86852,INCIDENTE,-23.00694444444,-47.13444444444,CAMPINAS,SP,BRASIL,SBKP,19/03/2025,00:03:00,SIM,FINALIZADA,***,NAO,,0,1,NAO
86851,PRYSF,***,AVIAO,AIRBUS,A320-251N,A20N,***,***,77000.0,77000.0,,2019.0,BRASIL,BRASIL,AVIAO,***,CONGONHAS,GUARARAPES - GILBERTO FREYRE,DECOLAGEM,REGULAR,NENHUM,0.0,86851,86851,86851,86851,INCIDENTE,-23.62611111111,-46.65638888888,SAO PAULO,SP,BRASIL,SBSP,18/03/2025,22:00:00,SIM,FINALIZADA,***,NAO,,0,1,NAO
86849,PRYXA,***,AVIAO,ATR - GIE AVIONS DE TRANSPORT REGIONAL,ATR-72-212A (600),AT76,TURBOELICE,BIMOTOR,23000.0,23000.0,,2022.0,BRASIL,BRASIL,AVIAO,***,SANTO ANGELO,SALGADO FILHO,DECOLAGEM,REGULAR,NENHUM,0.0,86849,86849,86849,86849,INCIDENTE,-28.28166666666,-54.16833333333,SANTO ANGELO,RS,BRASIL,SBNM,12/03/2025,15:45:00,SIM,FINALIZADA,***,NAO,,0,1,NAO
86848,PRTQC,***,AVIAO,AIRBUS S.A.S.,A320-214,A320,,BIMOTOR,78000.0,78000.0,0.0,2011.0,BRASIL,BRASIL,AVIAO,***,CONGONHAS,SALGADO FILHO,SUBIDA,REGULAR,NENHUM,0.0,86848,86848,86848,86848,INCIDENTE,-23.62611111111,-46.65638888888,SAO PAULO,SP,BRASIL,SBSP,11/03/2025,19:30:00,SIM,FINALIZADA,***,NAO,,0,1,NAO
86847,PRSLH,***,***,BOEING COMPANY,737-86N,B738,,BIMOTOR,79000.0,79000.0,,,BRASIL,BRASIL,***,***,DEPUTADO LUIS EDUARDO MAGALHAES,GOVERNADOR ANDRE FRANCO MONTORO,ESTACIONAMENTO,***,NENHUM,0.0,86847,86847,86847,86847,INCIDENTE,-23.43555555555,-46.47305555555,GUARULHOS,SP,BRASIL,SBGR,13/03/2025,03:45:00,SIM,FINALIZADA,***,NAO,,0,1,NAO
86846,PRSDT,***,AVIAO,BOEING,737-4B6,B734,JATO,BIMOTOR,65990.0,65990.0,,1994.0,BRASIL,BRASIL,AVIAO,***,TANCREDO NEVES,GOVERNADOR ANDRE FRANCO MONTORO,TAXI,***,NENHUM,0.0,86846,86846,86846,86846,INCIDENTE,-19.62444444444,-43.97194444444,CONFINS,MG,BRASIL,SBCF,11/03/2025,05:15:00,SIM,FINALIZADA,***,NAO,,0,1,NAO
86845,PRMBA,***,AVIAO,AIRBUS,A320-232,A320,JATO,BIMOTOR,77000.0,77000.0,184.0,2006.0,BRASIL,BRASIL,AVIAO,***,GOVERNADOR ANDRE FRANCO MONTORO,TENENTE-CORONEL AVIADOR CESAR BOMBONATO,DESCIDA,REGULAR,NENHUM,0.0,86845,86845,86845,86845,INCIDENTE,-18.88361111111,-48.22527777777,UBERLANDIA,MG,BRASIL,FAER,26/01/2025,17:15:00,SIM,FINALIZADA,***,NAO,,0,1,NAO
86844,PSGPE,***,AVIAO,BOEING COMPANY,B737-8 MAX,B38M,,***,78000.0,78000.0,0.0,2018.0,BRASIL,BRASIL,AVIAO,***,ANTONIO CARLOS JOBIM / GALEAO,GOVERNADOR ANDRE FRANCO MONTORO,TAXI,REGULAR,NENHUM,0.0,86844,86844,86844,86844,INCIDENTE,-22.81,-43.25055555555,RIO DE JANEIRO,RJ,BRASIL,SBGL,11/03/2025,00:47:00,SIM,FINALIZADA,***,NAO,,0,1,NAO
86843,PPSAT,***,AVIAO,AIR TRACTOR,AT-502B,AT5T,TURBOELICE,MONOMOTOR,3629.0,3629.0,1.0,2009.0,BRASIL,BRASIL,AVIAO,***,FORA DE AERODROMO,FORA DE AERODROMO,DECOLAGEM,AGRICOLA,SUBSTANCIAL,0.0,86843,86843,86843,86843,ACIDENTE,-20.10333333333,-49.77083333333,PONTES GESTAL,SP,BRASIL,FAER,19/03/2025,17:45:00,SIM,ATIVA,A-044/CENIPA/2025,NAO,,0,1,NAO
86842,PRBSI,***,AVIAO,BEECH AIRCRAFT,B300,B350,TURBOELICE,BIMOTOR,7484.0,7484.0,,,BRASIL,BRASIL,AVIAO,***,CATARATAS,PRESIDENTE JUSCELINO KUBITSCHEK,SUBIDA,POLICIAL,NENHUM,0.0,86842,86842,86842,86842,INCIDENTE,-25.60027777777,-54.485,FOZ DO IGUACU,PR,BRASIL,SBFI,21/03/2025,23:45:00,SIM,FINALIZADA,***,NAO,,0,1,NAO
86840,PRSLH,***,***,BOEING COMPANY,737-86N,B738,,BIMOTOR,79000.0,79000.0,,,BRASIL,BRASIL,***,***,TANCREDO NEVES,PINTO MARTINS,DESCIDA,***,NENHUM,0.0,86840,86840,86840,86840,INCIDENTE,-3.775833333333,-38.53222222222,FORTALEZA,CE,BRASIL,SBFZ,18/03/2025,12:00:00,SIM,FINALIZADA,***,NAO,,0,1,NAO
86839,PSVTA,***,***,EPIC AIRCRAFT,E1000,EPIC,,MONOMOTOR,3629.0,3629.0,,,BRASIL,BRASIL,***,***,LEITE LOPES,CAMPO DE MARTE - SP,POUSO,PRIVADA,NENHUM,0.0,86839,86839,86839,86839,INCIDENTE,-23.50916666666,-46.6375,SAO PAULO,SP,BRASIL,SBMT,13/03/2025,01:30:00,SIM,FINALIZADA,***,NAO,,0,1,NAO
86838,PRAQM,***,AVIAO,ATR - GIE AVIONS DE TRANSPORT REGIONAL,ATR-72-212A,AT72,TURBOELICE,BIMOTOR,23000.0,23000.0,75.0,2013.0,BRASIL,BRASIL,AVIAO,***,VIRACOPOS,LEITE LOPES,CRUZEIRO,REGULAR,NENHUM,0.0,86838,86838,86838,86838,INCIDENTE,-23.00694444444,-47.13444444444,CAMPINAS,SP,BRASIL,SBKP,13/03/2025,00:30:00,SIM,FINALIZADA,***,NAO,,0,1,NAO
86837,PPGXD,***,AVIAO,NEIVA INDUSTRIA AERONAUTICA,56-C,PAUL,PISTAO,MONOMOTOR,660.0,660.0,2.0,0.0,BRASIL,BRASIL,AVIAO,***,FRANK MILOYE MILENKOVICH,FRANK MILOYE MILENKOVICH,TAXI,INSTRUCAO,LEVE,0.0,86837,86837,86837,86837,INCIDENTE,-22.19694444444,-49.92638888888,MARILIA,SP,BRASIL,SBML,16/03/2025,19:45:00,SIM,FINALIZADA,***,NAO,,0,1,NAO
86835,PRATV,***,AVIAO,ATR - GIE AVIONS DE TRANSPORT REGIONAL,ATR-72-212A,AT72,TURBOELICE,BIMOTOR,23000.0,23000.0,75.0,2012.0,BRASIL,BRASIL,AVIAO,***,VIRACOPOS,PROFESSOR ERIBERTO MANOEL REINO,SUBIDA,REGULAR,NENHUM,0.0,86835,86835,86835,86835,INCIDENTE,-23.00694444444,-47.13444444444,CAMPINAS,SP,BRASIL,SBKP,09/03/2025,21:00:00,SIM,FINALIZADA,***,NAO,,0,1,NAO
86834,PRMHZ,***,AVIAO,AIRBUS,A320-214,A320,JATO,BIMOTOR,77000.0,77000.0,184.0,2008.0,BRASIL,BRASIL,AVIAO,***,TANCREDO NEVES,CONGONHAS,TAXI,REGULAR,NENHUM,0.0,86834,86834,86834,86834,INCIDENTE,-19.62444444444,-43.97194444444,CONFINS,MG,BRASIL,SBCF,04/03/2025,12:30:00,SIM,FINALIZADA,***,NAO,,0,1,NAO
86833,PRYRQ,***,AVIAO,AIRBUS,A320-251N,A320,JATO,BIMOTOR,77000.0,77000.0,170.0,0.0,BRASIL,BRASIL,AVIAO,***,TANCREDO NEVES,VIRACOPOS,DECOLAGEM,REGULAR,NENHUM,0.0,86833,86833,86833,86833,INCIDENTE,-19.62444444444,-43.97194444444,CONFINS,MG,BRASIL,SBCF,14/02/2025,09:45:00,SIM,FINALIZADA,***,NAO,,0,1,NAO
86832,PRYXA,***,AVIAO,ATR - GIE AVIONS DE TRANSPORT REGIONAL,ATR-72-212A (600),AT76,TURBOELICE,BIMOTOR,23000.0,23000.0,,2022.0,BRASIL,BRASIL,AVIAO,***,AFONSO PENA,ANTONIO CARLOS JOBIM / GALEAO,DECOLAGEM,REGULAR,NENHUM,0.0,86832,86832,86832,86832,INCIDENTE,-25.53166666666,-49.17611111111,CURITIBA,PR,BRASIL,SBCT,12/02/2025,15:15:00,SIM,FINALIZADA,***,NAO,,0,1,NAO
86831,PTZVV,***,AVIAO,JOSE OSVALDO VARGAS,RV-10,ZZZZ,PISTAO,MONOMOTOR,1224.0,1224.0,4.0,2010.0,BRASIL,BRASIL,AVIAO,***,XAVANTINA,AERODROMO NACIONAL DE AVIACAO,APROXIMACAO FINAL,EXPERIMENTAL,LEVE,0.0,86831,86831,86831,86831,INCIDENTE GRAVE,-16.62555555555,-49.34944444444,GOIANIA,GO,BRASIL,SBNV,17/03/2025,19:30:00,SIM,FINALIZADA,***,NAO,,0,1,NAO
86830,PRCGD,***,HELICOPTERO,SIKORSKY,S-92A,S92,TURBOEIXO,BIMOTOR,12020.0,12020.0,21.0,2010.0,BRASIL,BRASIL,HELICOPTERO,***,JACAREPAGUA,FORA DE AERODROMO,CRUZEIRO,TAXI AEREO,NENHUM,0.0,86830,86830,86830,86830,INCIDENTE,-22.9875,-43.37,RIO DE JANEIRO,RJ,BRASIL,FAER,20/03/2025,11:45:00,SIM,FINALIZADA,***,NAO,,0,1,NAO
86829,PROHF,***,HELICOPTERO,SIKORSKY AIRCRAFT,S-92A,S92,TURBOEIXO,BIMOTOR,12020.0,12020.0,22.0,2012.0,BRASIL,BRASIL,HELICOPTERO,***,JACAREPAGUA,FORA DE AERODROMO,APROXIMACAO FINAL,TAXI AEREO,NENHUM,0.0,86829,86829,86829,86829,INCIDENTE,,,CAMPOS DOS GOYTACAZES,RJ,BRASIL,FAER,18/03/2025,17:00:00,SIM,FINALIZADA,***,NAO,,0,1,NAO
86828,PRBSI,***,AVIAO,BEECH AIRCRAFT,B300,B350,TURBOELICE,BIMOTOR,7484.0,7484.0,,,BRASIL,BRASIL,AVIAO,***,PRESIDENTE JUSCELINO KUBITSCHEK,CATARATAS,SUBIDA,POLICIAL,NENHUM,0.0,86828,86828,86828,86828,INCIDENTE,-15.87111111111,-47.91861111111,BRASILIA,DF,BRASIL,SBBR,17/03/2025,03:00:00,SIM,FINALIZADA,***,NAO,,0,1,NAO
86827,PRBIZ,***,AVIAO,PIPER AIRCRAFT,PA-31T1,PAY1,TURBOELICE,BIMOTOR,3946.0,3946.0,6.0,1984.0,BRASIL,BRASIL,AVIAO,***,MARECHAL RONDON,CMTE Juliano Rambo,SUBIDA,TAXI AEREO,NENHUM,0.0,86827,86827,86827,86827,INCIDENTE,-15.65,-56.1175,CUIABA,MT,BRASIL,SBCY,18/03/2025,10:37:00,SIM,FINALIZADA,***,NAO,,0,1,NAO
86826,PRBGI,***,HELICOPTERO,SIKORSKY AIRCRAFT,S-76C,S76,TURBOEIXO,BIMOTOR,5307.0,5307.0,15.0,2003.0,BRASIL,BRASIL,HELICOPTERO,***,MACAE/RIO DE JANEIRO - JOAQUIM DE AZEVEDO MANCEBO,FORA DE AERODROMO,SUBIDA,TAXI AEREO,NENHUM,0.0,86826,86826,86826,86826,INCIDENTE,-22.34277777777,-41.76388888888,MACAE,RJ,BRASIL,SBME,19/03/2025,11:00:00,SIM,FINALIZADA,***,NAO,,0,1,NAO
86824,PTYEL,***,HELICOPTERO,BELL HELICOPTER,206L-4,B06,TURBOEIXO,MONOMOTOR,2018.0,2018.0,7.0,1997.0,BRASIL,BRASIL,HELICOPTERO,***,CORONEL ALTINO MACHADO,REGIONAL DA ZONA DA MATA,CRUZEIRO,PRIVADA,LEVE,0.0,86824,86824,86824,86824,INCIDENTE GRAVE,-19.91333333333,-42.33638888888,RAUL SOARES,MG,BRASIL,FAER,18/03/2025,14:30:00,SIM,ATIVA,IG-041/CENIPA/2025,NAO,,0,1,NAO
86823,PSCNH,***,***,CESSNA AIRCRAFT,208B,C208,,MONOMOTOR,4110.0,4110.0,,,BRASIL,BRASIL,***,***,TANCREDO NEVES,JACAREPAGUA,TAXI,TAXI AEREO,NENHUM,0.0,86823,86823,86823,86823,INCIDENTE,-22.9875,-43.37,RIO DE JANEIRO,RJ,BRASIL,SBJR,15/03/2025,13:45:00,SIM,FINALIZADA,***,NAO,,0,1,NAO
86822,PSBTL,***,***,AGUSTA,AW139,A139,,BIMOTOR,7000.0,7000.0,,,BRASIL,BRASIL,***,***,EURICO DE AGUIAR SALLES,FORA DE AERODROMO,TAXI,TAXI AEREO,NENHUM,0.0,86822,86822,86822,86822,INCIDENTE,-20.25805555555,-40.28638888888,VITORIA,ES,BRASIL,SBVT,13/03/2025,14:30:00,SIM,FINALIZADA,***,NAO,,0,1,NAO
86745,PSBDF,***,***,HELIBRAS,AS 350 B3,AS50,,MONOMOTOR,2370.0,2370.0,,,BRASIL,BRASIL,***,***,PRESIDENTE JUSCELINO KUBITSCHEK,PRESIDENTE JUSCELINO KUBITSCHEK,POUSO,POLICIAL,NENHUM,0.0,86745,86745,86745,86745,INCIDENTE,-16.01055555555,-47.99583333333,BRASILIA,DF,BRASIL,FAER,03/03/2025,19:45:00,SIM,FINALIZADA,***,NAO,,0,1,NAO
86744,PSTJM,***,***,CESSNA AIRCRAFT,680,C680,,BIMOTOR,13744.0,13744.0,,,BRASIL,BRASIL,***,***,MOLITERNO DE DRACENA,AFONSO PENA,CRUZEIRO,PRIVADA,NENHUM,0.0,86744,86744,86744,86744,INCIDENTE,,,CURITIBA,PR,BRASIL,FAER,09/03/2025,17:10:00,SIM,FINALIZADA,***,NAO,,0,1,NAO
86743,PRKLK,***,AVIAO,CESSNA AIRCRAFT,C152,C152,***,***,757.0,757.0,,1977.0,BRASIL,BRASIL,AVIAO,***,ABA,ABA,CRUZEIRO,PRIVADA,NENHUM,0.0,86743,86743,86743,86743,INCIDENTE GRAVE,-11.60722222222,-45.01583333333,RIACHAO DAS NEVES,BA,BRASIL,FAER,18/03/2025,12:40:00,SIM,FINALIZADA,***,NAO,,0,1,NAO
86742,PRLCR,***,HELICOPTERO,SIKORSKY AIRCRAFT,S-76C,S76,TURBOEIXO,BIMOTOR,5307.0,5307.0,14.0,2006.0,BRASIL,BRASIL,HELICOPTERO,***,FORA DE AERODROMO,DEPUTADO LUIS EDUARDO MAGALHAES,DESCIDA,TAXI AEREO,NENHUM,0.0,86742,86742,86742,86742,INCIDENTE,-12.90861111111,-38.3225,SALVADOR,BA,BRASIL,SBSV,07/03/2025,17:15:00,SIM,FINALIZADA,***,NAO,,0,1,NAO
86740,PRYYJ,***,AVIAO,AIRBUS,A320-251N,A20N,***,BIMOTOR,79000.0,79000.0,,2017.0,BRASIL,BRASIL,AVIAO,***,VIRACOPOS,DEPUTADO LUIS EDUARDO MAGALHAES,TAXI,REGULAR,NENHUM,0.0,86740,86740,86740,86740,INCIDENTE,-23.00694444444,-47.13444444444,CAMPINAS,SP,BRASIL,SBKP,06/03/2025,20:00:00,SIM,FINALIZADA,***,NAO,,0,1,NAO
86739,PRYYC,***,***,AIRBUS,A320-251N,A320,JATO,BIMOTOR,79000.0,79000.0,,,BRASIL,BRASIL,***,***,PRESIDENTE JOAO BATISTA FIGUEIREDO,VIRACOPOS,TAXI,REGULAR,NENHUM,0.0,86739,86739,86739,86739,INCIDENTE,-11.885,-55.58611111111,SINOP,MT,BRASIL,SBSI,09/03/2025,22:00:00,SIM,FINALIZADA,***,NAO,,0,1,NAO
86738,PRYXA,***,AVIAO,ATR - GIE AVIONS DE TRANSPORT REGIONAL,ATR-72-212A (600),AT76,TURBOELICE,BIMOTOR,23000.0,23000.0,,2022.0,BRASIL,BRASIL,AVIAO,***,LAURO CARNEIRO DE LOYOLA,VIRACOPOS,DECOLAGEM,REGULAR,NENHUM,0.0,86738,86738,86738,86738,INCIDENTE,-26.22305555555,-48.79777777777,JOINVILLE,SC,BRASIL,SBJV,07/03/2025,19:00:00,SIM,FINALIZADA,***,NAO,,0,1,NAO
86737,PSAES,***,AVIAO,EMBRAER,ERJ 190-400,E295,,***,61200.0,61200.0,0.0,2023.0,BRASIL,BRASIL,AVIAO,***,VAL DE CANS / JULIO CEZAR RIBEIRO,PRESIDENTE JUSCELINO KUBITSCHEK,DECOLAGEM,REGULAR,NENHUM,0.0,86737,86737,86737,86737,INCIDENTE,-1.384722222222,-48.47888888888,BELEM,PA,BRASIL,SBBE,06/03/2025,06:15:00,SIM,FINALIZADA,***,NAO,,0,1,NAO
86736,PRGZS,***,AVIAO,BOEING,737-8AS,B738,JATO,BIMOTOR,70533.0,70533.0,196.0,2011.0,BRASIL,BRASIL,AVIAO,***,ANTONIO CARLOS JOBIM / GALEAO,GUARARAPES - GILBERTO FREYRE,DECOLAGEM,REGULAR,NENHUM,0.0,86736,86736,86736,86736,INCIDENTE,-22.81,-43.25055555555,RIO DE JANEIRO,RJ,BRASIL,SBGL,09/03/2025,11:45:00,SIM,FINALIZADA,***,NAO,,0,1,NAO
86735,PRTYD,***,AVIAO,AIRBUS,A320-214,A320,JATO,BIMOTOR,77000.0,77000.0,184.0,2013.0,BRASIL,BRASIL,AVIAO,***,MINISTRO VICTOR KONDER,GOVERNADOR ANDRE FRANCO MONTORO,PUSHBACK,REGULAR,NENHUM,0.0,86735,86735,86735,86735,INCIDENTE,-26.87861111111,-48.65083333333,NAVEGANTES,SC,BRASIL,SBNF,06/03/2025,15:30:00,SIM,FINALIZADA,***,NAO,,0,1,NAO
86734,PPWSA,***,AVIAO,BOEING,B737-4Q8,B734,***,SEM TRACAO,68038.0,68038.0,0.0,1994.0,BRASIL,BRASIL,AVIAO,***,GOVERNADOR ANDRE FRANCO MONTORO,PRESIDENTE JUSCELINO KUBITSCHEK,CRUZEIRO,***,NENHUM,0.0,86734,86734,86734,86734,INCIDENTE,-15.87111111111,-47.91861111111,BRASILIA,DF,BRASIL,SBBR,07/03/2025,07:45:00,SIM,FINALIZADA,***,NAO,,0,1,NAO
86733,PRSDM,***,AVIAO,BOEING COMPANY,737-4Y0,B734,JATO,BIMOTOR,68038.0,68038.0,7.0,1990.0,BRASIL,BRASIL,AVIAO,***,TANCREDO NEVES,GOVERNADOR ANDRE FRANCO MONTORO,CRUZEIRO,***,NENHUM,0.0,86733,86733,86733,86733,INCIDENTE,-19.62444444444,-43.97194444444,GUARULHOS,SP,BRASIL,SBGR,06/03/2025,05:00:00,SIM,FINALIZADA,***,NAO,,0,1,NAO
86732,PRPJN,***,AVIAO,EMBRAER,ERJ 190-400,E295,JATO,BIMOTOR,61500.0,61500.0,143.0,2019.0,BRASIL,BRASIL,AVIAO,***,TANCREDO NEVES,GOVERNADOR ALUIZIO ALVES,DECOLAGEM,REGULAR,NENHUM,0.0,86732,86732,86732,86732,INCIDENTE,-19.62444444444,-43.97194444444,CONFINS,MG,BRASIL,SBCF,01/03/2025,18:30:00,SIM,FINALIZADA,***,NAO,,0,1,NAO
86730,PRMHE,***,AVIAO,AIRBUS,A320-214,A320,JATO,BIMOTOR,77000.0,77000.0,184.0,2007.0,BRASIL,BRASIL,AVIAO,***,DEPUTADO LUIS EDUARDO MAGALHAES,PRESIDENTE JUSCELINO KUBITSCHEK,POUSO,REGULAR,LEVE,0.0,86730,86730,86730,86730,INCIDENTE,-15.87111111111,-47.91861111111,BRASILIA,DF,BRASIL,SBBR,18/03/2025,22:15:00,SIM,FINALIZADA,***,NAO,,0,1,NAO
86729,PRYJF,***,AVIAO,AIRBUS S.A.S.,A321-251NX,A21N,JATO,BIMOTOR,89000.0,89000.0,223.0,2021.0,BRASIL,BRASIL,AVIAO,***,GUARARAPES - GILBERTO FREYRE,VIRACOPOS,SUBIDA,REGULAR,NENHUM,0.0,86729,86729,86729,86729,INCIDENTE,-8.126388888888,-34.92277777777,RECIFE,PE,BRASIL,SBRF,12/03/2025,22:45:00,SIM,FINALIZADA,***,NAO,,0,1,NAO
86728,PRMBF,***,AVIAO,AIRBUS,A320-232,A320,JATO,BIMOTOR,70000.0,70000.0,184.0,2006.0,BRASIL,BRASIL,AVIAO,***,ANTONIO CARLOS JOBIM / GALEAO,PORTO SEGURO,APROXIMACAO FINAL,REGULAR,NENHUM,0.0,86728,86728,86728,86728,INCIDENTE,-16.43805555555,-39.07777777777,PORTO SEGURO,BA,BRASIL,SBPS,07/03/2025,18:30:00,SIM,FINALIZADA,***,NAO,,0,1,NAO
86727,PRXBI,***,AVIAO,AIRBUS,A320,A320,,BIMOTOR,73500.0,73500.0,0.0,2022.0,BRASIL,BRASIL,AVIAO,***,GOVERNADOR ANDRE FRANCO MONTORO,SENADOR NILO COELHO,DECOLAGEM,REGULAR,NENHUM,0.0,86727,86727,86727,86727,INCIDENTE,-23.43555555555,-46.47305555555,GUARULHOS,SP,BRASIL,SBGR,27/02/2025,15:00:00,SIM,FINALIZADA,***,NAO,,0,1,NAO
86725,PTMXB,***,AVIAO,AIRBUS,A321-231,A321,JATO,BIMOTOR,89000.0,89000.0,232.0,2007.0,BRASIL,BRASIL,AVIAO,***,GOVERNADOR ANDRE FRANCO MONTORO,GOVERNADOR ALUIZIO ALVES,CRUZEIRO,REGULAR,NENHUM,0.0,86725,86725,86725,86725,INCIDENTE,-5.768888888888,-35.36638888888,SAO GONCALO DO AMARANTE,RN,BRASIL,SBSG,16/03/2025,06:45:00,SIM,FINALIZADA,***,NAO,,0,1,NAO
86724,PRYRS,***,AVIAO,AIRBUS,A320-253N,A20N,JATO,BIMOTOR,77000.0,77000.0,182.0,2018.0,BRASIL,BRASIL,AVIAO,***,PROFESSOR ERIBERTO MANOEL REINO,GUARARAPES - GILBERTO FREYRE,CRUZEIRO,REGULAR,NENHUM,0.0,86724,86724,86724,86724,INCIDENTE,-23.00694444444,-47.13444444444,CAMPINAS,SP,BRASIL,SBKP,15/03/2025,15:45:00,SIM,FINALIZADA,***,NAO,,0,1,NAO
86723,PRYXC,***,AVIAO,ATR - GIE AVIONS DE TRANSPORT REGIONAL,ATR-72-212A (600),AT76,TURBOELICE,BIMOTOR,23000.0,23000.0,77.0,2023.0,BRASIL,BRASIL,AVIAO,***,SALGADO FILHO,SANTO ANGELO,POUSO,REGULAR,LEVE,0.0,86723,86723,86723,86723,INCIDENTE,-28.28166666666,-54.16833333333,SANTO ANGELO,RS,BRASIL,SBNM,14/03/2025,14:15:00,SIM,FINALIZADA,***,NAO,,0,1,NAO
86721,PRGXX,***,AVIAO,BOEING COMPANY,737-8EH,B738,JATO,BIMOTOR,70533.0,70533.0,196.0,0.0,BRASIL,BRASIL,AVIAO,***,EURICO DE AGUIAR SALLES,CONGONHAS,POUSO,REGULAR,NENHUM,0.0,86721,86721,86721,86721,INCIDENTE,-23.62611111111,-46.65638888888,SAO PAULO,SP,BRASIL,SBSP,12/03/2025,13:15:00,SIM,FINALIZADA,***,NAO,,0,1,NAO
86720,PSGPH,***,AVIAO,BOEING COMPANY,737-8 MAX,***,JATO,BIMOTOR,82644.0,82644.0,,2022.0,BRASIL,BRASIL,AVIAO,***,GOVERNADOR ANDRE FRANCO MONTORO,JORGE NEWBERY AIRFIELD,DECOLAGEM,REGULAR,LEVE,0.0,86720,86720,86720,86720,INCIDENTE,-23.43555555555,-46.47305555555,GUARULHOS,SP,BRASIL,SBGR,14/03/2025,12:30:00,SIM,FINALIZADA,***,NAO,,0,1,NAO
86719,PRXBQ,***,AVIAO,AIRBUS S.A.S.,A320-271N,A20N,JATO,BIMOTOR,79000.0,79000.0,189.0,0.0,BRASIL,BRASIL,AVIAO,***,DEPUTADO LUIS EDUARDO MAGALHAES,CONGONHAS,POUSO,REGULAR,LEVE,0.0,86719,86719,86719,86719,INCIDENTE,-23.62611111111,-46.65638888888,SAO PAULO,SP,BRASIL,SBSP,12/03/2025,10:45:00,SIM,FINALIZADA,***,NAO,,0,1,NAO
86718,PRXMD,***,AVIAO,BOEING,737-8 MAX,B38M,JATO,BIMOTOR,82190.0,82190.0,196.0,2018.0,BRASIL,BRASIL,AVIAO,***,PRESIDENTE JUSCELINO KUBITSCHEK,DEPUTADO LUIS EDUARDO MAGALHAES,POUSO,REGULAR,LEVE,0.0,86718,86718,86718,86718,INCIDENTE,-12.90861111111,-38.3225,SALVADOR,BA,BRASIL,SBSV,11/03/2025,18:15:00,SIM,FINALIZADA,***,NAO,,0,1,NAO
86717,PRTYN,***,AVIAO,AIRBUS,A320-214,A320,JATO,BIMOTOR,78000.0,78000.0,0.0,2015.0,BRASIL,BRASIL,AVIAO,***,LAURO KURTZ,GOVERNADOR ANDRE FRANCO MONTORO,DECOLAGEM,REGULAR,LEVE,0.0,86717,86717,86717,86717,INCIDENTE,-28.24416666666,-52.32833333333,PASSO FUNDO,RS,BRASIL,SBPF,07/03/2025,23:00:00,SIM,FINALIZADA,***,NAO,,0,1,NAO
86716,PSGPK,***,AVIAO,BOEING,737-8 MAX,DC2,,BIMOTOR,82644.0,82644.0,0.0,2022.0,BRASIL,BRASIL,AVIAO,***,CAMPO GRANDE,CONGONHAS,POUSO,REGULAR,LEVE,0.0,86716,86716,86716,86716,INCIDENTE,-23.62611111111,-46.65638888888,SAO PAULO,SP,BRASIL,SBSP,11/03/2025,17:45:00,SIM,FINALIZADA,***,NAO,,0,1,NAO
86715,PRXBQ,***,AVIAO,AIRBUS S.A.S.,A320-271N,A20N,JATO,BIMOTOR,79000.0,79000.0,189.0,0.0,BRASIL,BRASIL,AVIAO,***,TENENTE-CORONEL AVIADOR CESAR BOMBONATO,CONGONHAS,DECOLAGEM,REGULAR,LEVE,0.0,86715,86715,86715,86715,INCIDENTE,-18.88361111111,-48.22527777777,UBERLANDIA,MG,BRASIL,SBUL,11/03/2025,12:00:00,SIM,FINALIZADA,***,NAO,,0,1,NAO
86714,PRYRA,***,AVIAO,AIRBUS,A320-251N,A320,JATO,BIMOTOR,77000.0,77000.0,183.0,2016.0,BRASIL,BRASIL,AVIAO,***,VIRACOPOS,DEPUTADO LUIS EDUARDO MAGALHAES,SUBIDA,REGULAR,LEVE,0.0,86714,86714,86714,86714,INCIDENTE,-23.00694444444,-47.13444444444,CAMPINAS,SP,BRASIL,SBKP,07/02/2025,12:00:00,SIM,FINALIZADA,***,NAO,,0,1,NAO
86713,PRXMF,***,AVIAO,BOEING,737-8 MAX,B38M,JATO,BIMOTOR,82190.0,82190.0,196.0,2018.0,BRASIL,BRASIL,AVIAO,***,CONGONHAS,CAMPO GRANDE,DECOLAGEM,REGULAR,LEVE,0.0,86713,86713,86713,86713,INCIDENTE,-23.62611111111,-46.65638888888,SAO PAULO,SP,BRASIL,SBSP,07/03/2025,11:45:00,SIM,FINALIZADA,***,NAO,,0,1,NAO
86712,PRXMF,***,AVIAO,BOEING,737-8 MAX,B38M,JATO,BIMOTOR,82190.0,82190.0,196.0,2018.0,BRASIL,BRASIL,AVIAO,***,CONGONHAS,CAMPO GRANDE,DECOLAGEM,REGULAR,LEVE,0.0,86712,86712,86712,86712,INCIDENTE,-23.62611111111,-46.65638888888,SAO PAULO,SP,BRASIL,SBSP,07/03/2025,14:00:00,SIM,FINALIZADA,***,NAO,,0,1,NAO
86711,PSGPI,***,AVIAO,BOEING,B737-800,B738,,BIMOTOR,82644.0,82644.0,0.0,0.0,BRASIL,BRASIL,AVIAO,***,ANTONIO CARLOS JOBIM / GALEAO,AEROPORTO INTERNACIONAL DE CARRASCO - GENERAL CESARIO L BERISSO,DECOLAGEM,REGULAR,LEVE,0.0,86711,86711,86711,86711,INCIDENTE,-22.81,-43.25055555555,RIO DE JANEIRO,RJ,BRASIL,SBGL,07/03/2025,02:18:00,SIM,FINALIZADA,***,NAO,,0,1,NAO
86710,PRXBQ,***,AVIAO,AIRBUS S.A.S.,A320-271N,A20N,JATO,BIMOTOR,79000.0,79000.0,189.0,0.0,BRASIL,BRASIL,AVIAO,***,TENENTE-CORONEL AVIADOR CESAR BOMBONATO,GOVERNADOR ANDRE FRANCO MONTORO,DECOLAGEM,REGULAR,LEVE,0.0,86710,86710,86710,86710,INCIDENTE,-18.88361111111,-48.22527777777,UBERLANDIA,MG,BRASIL,SBUL,06/03/2025,13:00:00,SIM,FINALIZADA,***,NAO,,0,1,NAO
86709,PRGEI,***,AVIAO,BOEING,737-76N,B737,JATO,BIMOTOR,65997.0,65997.0,,,BRASIL,BRASIL,AVIAO,***,SANTOS DUMONT,PRESIDENTE JUSCELINO KUBITSCHEK,POUSO,REGULAR,NENHUM,0.0,86709,86709,86709,86709,INCIDENTE,-15.87111111111,-47.91861111111,BRASILIA,DF,BRASIL,SBBR,04/03/2025,22:45:00,SIM,FINALIZADA,***,NAO,,0,1,NAO
86708,PSARG,***,***,AIR TRACTOR,AT-502A,AT5T,,MONOMOTOR,3629.0,3629.0,,,BRASIL,BRASIL,***,***,FORA DE AERODROMO,FORA DE AERODROMO,MANOBRA,AGRICOLA,DESTRUIDA,1.0,86708,86708,86708,86708,ACIDENTE,-7.930555555555,-46.06388888888,BALSAS,MA,BRASIL,FAER,05/03/2025,10:30:00,NAO,ATIVA,A-036/CENIPA/2025,NAO,,0,1,NAO
86707,PTVKB,***,AVIAO,EMBRAER,EMB-820C CARAJA,PAT4,TURBOELICE,BIMOTOR,3175.0,3175.0,10.0,1988.0,BRASIL,BRASIL,AVIAO,***,TABATINGA,FLORES,POUSO,TAXI AEREO,NENHUM,0.0,86707,86707,86707,86707,INCIDENTE,-3.072777777777,-60.02111111111,MANAUS,AM,BRASIL,SWFN,13/03/2025,18:00:00,SIM,FINALIZADA,***,NAO,,0,1,NAO
86706,PRRSL,***,AVIAO,AIR TRACTOR,AT-502B,AT5T,TURBOELICE,MONOMOTOR,3629.0,3629.0,1.0,2009.0,BRASIL,BRASIL,AVIAO,***,J LEM,FORA DE AERODROMO,DECOLAGEM,AGRICOLA,SUBSTANCIAL,0.0,86706,86706,86706,86706,ACIDENTE,-12.125,-45.77222222222,LUIS EDUARDO MAGALHAES,BA,BRASIL,SNJL,13/03/2025,13:30:00,SIM,ATIVA,A-040/CENIPA/2025,NAO,,0,1,SIM
86705,PRSDM,***,AVIAO,BOEING COMPANY,737-4Y0,B734,JATO,BIMOTOR,68038.0,68038.0,7.0,1990.0,BRASIL,BRASIL,AVIAO,***,ANTONIO CARLOS JOBIM / GALEAO,DEPUTADO LUIS EDUARDO MAGALHAES,DECOLAGEM,***,NENHUM,0.0,86705,86705,86705,86705,INCIDENTE,-22.81,-43.25055555555,RIO DE JANEIRO,RJ,BRASIL,SBGL,06/03/2025,08:45:00,SIM,FINALIZADA,***,NAO,,0,1,NAO
86704,PRSLH,***,***,BOEING COMPANY,737-86N,B738,,BIMOTOR,79000.0,79000.0,,,BRASIL,BRASIL,***,***,TANCREDO NEVES,PINTO MARTINS,APROXIMACAO FINAL,***,NENHUM,0.0,86704,86704,86704,86704,INCIDENTE,-3.775833333333,-38.53222222222,FORTALEZA,CE,BRASIL,SBFZ,28/02/2025,13:00:00,SIM,FINALIZADA,***,NAO,,0,1,NAO
86703,PSAEY,***,AVIAO,EMBRAER,ERJ190-400,E295,,***,61200.0,61200.0,0.0,2024.0,BRASIL,BRASIL,AVIAO,***,VIRACOPOS,AFONSO PENA,DECOLAGEM,REGULAR,NENHUM,0.0,86703,86703,86703,86703,INCIDENTE,-23.00694444444,-47.13444444444,CAMPINAS,SP,BRASIL,SBKP,28/02/2025,22:00:00,SIM,FINALIZADA,***,NAO,,0,1,NAO
86702,PRSHE,***,AVIAO,BOEING COMPANY,B737-5H6,B735,JATO,BIMOTOR,60000.0,60000.0,0.0,1992.0,BRASIL,BRASIL,AVIAO,***,TANCREDO NEVES,DEPUTADO LUIS EDUARDO MAGALHAES,CRUZEIRO,***,NENHUM,0.0,86702,86702,86702,86702,INCIDENTE,,,SALVADOR,BA,BRASIL,FAER,05/03/2025,16:00:00,SIM,FINALIZADA,***,NAO,,0,1,NAO
86700,PRGYA,***,AVIAO,BOEING,737-8EH,B738,JATO,BIMOTOR,70533.0,70533.0,187.0,0.0,BRASIL,BRASIL,AVIAO,***,EURICO DE AGUIAR SALLES,GOVERNADOR ANDRE FRANCO MONTORO,POUSO,REGULAR,NENHUM,0.0,86700,86700,86700,86700,INCIDENTE,-23.43555555555,-46.47305555555,GUARULHOS,SP,BRASIL,SBGR,25/02/2025,17:00:00,SIM,FINALIZADA,***,NAO,,0,1,NAO
86699,PPWSA,***,AVIAO,BOEING,B737-4Q8,B734,***,SEM TRACAO,68038.0,68038.0,0.0,1994.0,BRASIL,BRASIL,AVIAO,***,DEPUTADO LUIS EDUARDO MAGALHAES,GOVERNADOR ANDRE FRANCO MONTORO,CRUZEIRO,***,NENHUM,0.0,86699,86699,86699,86699,INCIDENTE,-23.43555555555,-46.47305555555,GUARULHOS,SP,BRASIL,SBGR,26/02/2025,04:00:00,SIM,FINALIZADA,***,NAO,,0,1,NAO
86698,PRTYU,***,AVIAO,AIRBUS,A320-214,A320,***,SEM TRACAO,78000.0,78000.0,0.0,2015.0,BRASIL,BRASIL,AVIAO,***,TANCREDO NEVES,PRESIDENTE JUSCELINO KUBITSCHEK,TAXI,REGULAR,NENHUM,0.0,86698,86698,86698,86698,INCIDENTE,-19.62444444444,-43.97194444444,CONFINS,MG,BRASIL,SBCF,23/02/2025,09:30:00,SIM,FINALIZADA,***,NAO,,0,1,NAO
